Well ID,S.No,STATE,DISTRICT,BLOCK,LOCATION,LATITUDE,LONGITUDE,pH,EC,CO3,HCO3,Cl,SO4,NO3,PO4,TH,Ca,Mg,Na,K,F,SiO2,TDS,U(ppb)
W113126092431802,1,A&N Islands,South Andaman,PORT BLAIR,Kodiaghat,11.545,92.74583,8.0,349.0,0.0,183.0,25.0,1.0,1.0,,175.0,34.0,22.0,10.0,0.0,1.0,,206.0,5.0
W113616092411001,2,A&N Islands,South Andaman,PORT BLAIR,Sippighat,11.6025,92.73,8.0,660.0,0.0,262.0,82.0,5.0,1.0,,250.0,52.0,29.0,51.0,1.0,0.0,,381.0,6.0
W113640092443301,3,A&N Islands,South Andaman,PORT BLAIR,Brichganj,11.62083,92.73028,7.5,270.0,0.0,116.0,35.0,1.0,0.0,,125.0,4.0,28.0,10.0,1.0,0.0,,151.0,
W114421092422801,4,A&N Islands,South Andaman,FERRARGUNJ,Wimberleyganj,11.7325,92.70861,7.6,311.0,0.0,159.0,39.0,2.0,0.0,,135.0,26.0,17.0,15.0,2.0,0.0,,198.0,0.0
W113955092391801,5,A&N Islands,South Andaman,FERRARGUNJ,Ograbraj,11.66361,92.65806,8.0,2501.0,0.0,512.0,560.0,56.0,5.0,,465.0,56.0,79.0,336.0,18.0,1.0,,1424.0,
W113137092432201,6,A&N Islands,South Andaman,PORT BLAIR,Burmanala,11.55778,92.72917,8.0,264.0,0.0,153.0,35.0,1.0,1.0,,130.0,26.0,16.0,15.0,0.0,1.0,,188.0,3.0
W113227092433001,7,A&N Islands,South Andaman,PORT BLAIR,Calicut,11.6075,92.72556,8.0,535.0,0.0,323.0,28.0,1.0,1.0,,245.0,38.0,36.0,19.0,0.0,0.0,,321.0,0.0
W114348092404801,8,A&N Islands,South Andaman,FERRARGUNJ,Saitankhari,11.71167,92.67111,8.0,440.0,0.0,226.0,39.0,1.0,1.0,,190.0,36.0,24.0,22.0,2.0,1.0,,264.0,1.0
W123020092544201,9,A&N Islands,N&M Andaman,MAYABUNDER,Rangat,12.50611,92.90861,8.0,592.0,0.0,317.0,35.0,1.0,0.0,,265.0,34.0,44.0,15.0,2.0,0.0,,325.0,2.0
W123014092513301,10,A&N Islands,N&M Andaman,MAYABUNDER,Bakultala,12.50417,92.85833,8.0,456.0,0.0,226.0,21.0,5.0,2.0,,205.0,38.0,27.0,14.0,7.0,0.6,,251.0,0.0
W123129092581301,11,A&N Islands,N&M Andaman,MAYABUNDER,Nimbutala,12.49444,92.95417,8.0,531.0,0.0,323.0,25.0,2.0,1.0,,245.0,36.0,38.0,14.0,1.0,1.0,,314.0,1.0
W123030092573801,12,A&N Islands,N&M Andaman,MAYABUNDER,Padmanavapuram,12.60667,92.94917,7.0,506.0,0.0,275.0,32.0,0.0,0.0,,215.0,32.0,33.0,14.0,1.0,1.0,,280.0,
W124940092512801,13,A&N Islands,N&M Andaman,MAYABUNDER,Rest Camp,12.83278,92.85917,8.0,431.0,0.0,220.0,25.0,1.0,1.0,,195.0,20.0,35.0,18.0,1.0,0.4,,234.0,1.0
W113427092395101,14,A&N Islands,South Andaman,PORT BLAIR,Gupta Para,11.55972,92.65861,7.0,147.0,0.0,49.0,25.0,0.0,0.0,,50.0,16.0,2.0,9.0,1.0,0.0,,84.0,1.0
W121001092455601,15,A&N Islands,N&M Andaman,RONGET,Baratang (Nilambur),12.16833,92.76694,8.0,548.0,0.0,293.0,28.0,1.0,1.0,,200.0,26.0,33.0,35.0,1.0,0.0,,303.0,1.0
W121858092472001,16,A&N Islands,N&M Andaman,RONGET,Uttara,12.16139,92.79,8.0,253.0,0.0,122.0,28.0,1.0,1.0,,110.0,22.0,13.0,11.0,2.0,0.0,,153.0,1.0
W122041092464401,17,A&N Islands,N&M Andaman,RONGET,Kadamtala,12.34917,92.77417,7.9,626.0,0.0,342.0,28.0,1.0,1.0,,240.0,26.0,43.0,48.0,1.0,0.0,,356.0,0.0
W122009092455601,18,A&N Islands,N&M Andaman,RONGET,Porlobjig-15,12.49556,92.78111,7.7,349.0,0.0,189.0,25.0,1.0,1.0,,150.0,22.0,23.0,16.0,3.0,0.7,,206.0,0.0
W122724092462501,19,A&N Islands,N&M Andaman,RONGET,Tikadera,12.52278,92.81389,7.0,186.0,0.0,92.0,21.0,0.0,1.0,,80.0,22.0,6.0,9.0,2.0,0.0,,117.0,0.0
W125604092513601,20,A&N Islands,N&M Andaman,MAYABUNDER,Mohanpur,12.95417,92.83556,8.0,579.0,0.0,238.0,60.0,6.0,8.0,,195.0,36.0,26.0,50.0,7.0,0.0,,338.0,
W251045079470001,21,A&N Islands,N&M Andaman,KABRAI,Srinagar,13.13944,92.86806,7.0,387.0,0.0,195.0,21.0,2.0,1.0,,115.0,32.0,9.0,44.0,3.0,0.0,,231.0,
W131024092555501,22,A&N Islands,N&M Andaman,DIGLIPUR,Nabagram,13.15472,92.94833,7.0,278.0,0.0,177.0,21.0,1.0,3.0,,145.0,14.0,27.0,9.0,1.0,0.0,,185.0,1.0
W131351092571902,23,A&N Islands,N&M Andaman,DIGLIPUR,Durgapur,13.27333,93.03194,8.0,475.0,0.0,238.0,35.0,11.0,4.0,,190.0,38.0,23.0,32.0,2.0,0.0,,292.0,4.0
W131708093001101,24,A&N Islands,N&M Andaman,DIGLIPUR,Laxmipur,13.27583,92.96667,7.0,360.0,0.0,134.0,21.0,38.0,2.0,,120.0,28.0,12.0,32.0,5.0,1.0,,221.0,1.0
W131427092592601,25,A&N Islands,N&M Andaman,DIGLIPUR,Subhasgram,13.25222,92.97417,8.0,844.0,0.0,329.0,28.0,86.0,7.0,,355.0,56.0,52.0,42.0,2.0,0.0,,475.0,5.0
W124345092530501,26,A&N Islands,N&M Andaman,MAYABUNDER,Basantipur,12.7575,92.8725,8.0,366.0,0.0,220.0,18.0,2.0,0.0,,175.0,36.0,21.0,14.0,2.0,1.0,,227.0,6.0
W113938092443601,27,A&N Islands,South Andaman,PORT BLAIR,Marina Park,11.67167,92.74667,8.0,378.0,0.0,220.0,25.0,1.0,0.0,,195.0,42.0,22.0,11.0,2.0,0.0,,237.0,2.0
W114231092390001,28,A&N Islands,South Andaman,FERRARGUNJ,Annikat,11.70833,92.65,7.0,412.0,0.0,195.0,35.0,3.0,2.0,,140.0,28.0,17.0,24.0,1.0,1.0,,230.0,3.0
W114016092415501,29,A&N Islands,South Andaman,FERRARGUNJ,Namunagar,11.69028,92.68028,8.0,273.0,0.0,146.0,25.0,2.0,1.0,,120.0,28.0,12.0,12.0,1.0,1.0,,172.0,0.0
W122205092551201,30,A&N Islands,Long Island,RONGET,Long Island,12.36444,92.92333,7.0,533.0,0.0,305.0,25.0,5.0,2.0,,255.0,74.0,17.0,7.0,1.0,1.0,,317.0,2.0
W122200092552201,31,A&N Islands,Long Island,RONGET,Long Island (forest Area),12.36639,92.92333,7.0,878.0,0.0,494.0,32.0,2.0,0.0,,280.0,40.0,44.0,55.0,11.0,1.0,,497.0,1.0
W115913092571701,32,A&N Islands,Havelock,PORT BLAIR,Radhanagar,11.99167,92.95333,8.0,878.0,0.0,458.0,53.0,8.0,1.0,,245.0,48.0,30.0,75.0,8.0,0.0,,504.0,0.0
W123652092555501,33,A&N Islands,N&M Andaman,MAYABUNDER,Swadeshnagar,12.65083,92.89111,7.6,260.0,0.0,146.0,18.0,8.0,0.0,,135.0,18.0,22.0,9.0,1.0,0.0,,165.0,3.0
W114004092441501,34,A&N Islands,South Andaman,PORT BLAIR,Light House,11.66778,92.73778,8.0,858.0,0.0,458.0,50.0,6.0,0.0,,110.0,16.0,17.0,154.0,4.0,0.0,,527.0,5.0
W291530078553001,35,A&N Islands,Neil Island,Gadarpur,Bharatpur,11.83,93.03806,7.0,557.0,0.0,329.0,35.0,3.0,1.0,,245.0,44.0,33.0,21.0,1.0,0.0,,338.0,1.0
W291530078553001,36,A&N Islands,Neil Island,Gadarpur,Bharatpur,11.83611,93.04444,7.0,746.0,0.0,409.0,43.0,11.0,1.0,,300.0,64.0,34.0,40.0,3.0,0.0,,446.0,0.0
W243310081461201,37,A&N Islands,Neil Island,MAUGANJ,Sitapur,11.82,93.05972,8.0,1020.0,0.0,488.0,74.0,4.0,1.0,,330.0,54.0,47.0,50.0,13.0,1.0,,543.0,0.0
W114955093010201,38,A&N Islands,Neil Island,PORT BLAIR,Laxmanpur,11.83194,93.01694,8.0,953.0,0.0,415.0,78.0,24.0,2.0,,295.0,44.0,45.0,60.0,5.0,0.0,,511.0,2.0
W113947092444601,39,A&N Islands,Ross Island,PORT BLAIR,Ross Island,11.675,92.76167,8.0,466.0,0.0,183.0,53.0,19.0,0.0,,210.0,48.0,22.0,12.0,2.0,0.0,,290.0,1.0
W113646092400201,40,A&N Islands,South Andaman,PORT BLAIR,Dhannikhari,11.61556,92.66778,8.0,348.0,0.0,183.0,21.0,2.0,0.0,,160.0,26.0,23.0,11.0,0.0,1.0,,225.0,1.0
W113839092392201,41,A&N Islands,South Andaman,FERRARGUNJ,Port Mout,11.64389,92.65611,8.0,448.0,0.0,226.0,18.0,25.0,0.0,,190.0,38.0,23.0,17.0,1.0,0.0,,287.0,1.0
W114056092381101,42,A&N Islands,South Andaman,FERRARGUNJ,Tushnabad,11.68222,92.63639,8.0,749.0,0.0,262.0,92.0,6.0,6.0,,180.0,48.0,15.0,87.0,8.0,1.0,,437.0,1.0
W105435075551501,43,A&N Islands,South Andaman,THIRUR MUNICIPALITY,Tirur,11.72417,92.61361,7.2,157.0,0.0,61.0,21.0,0.0,0.0,,60.0,18.0,4.0,7.0,1.0,1.0,,104.0,1.0
W114302092391001,44,A&N Islands,South Andaman,FERRARGUNJ,Ferrarganj,11.71694,92.65278,7.5,1016.0,0.0,397.0,96.0,18.0,5.0,,230.0,62.0,18.0,127.0,7.0,0.0,,585.0,1.0
W114320092393901,45,A&N Islands,South Andaman,FERRARGUNJ,Bindraban,11.72167,92.66722,8.0,372.0,0.0,183.0,18.0,4.0,0.0,,135.0,20.0,21.0,16.0,1.0,0.0,,205.0,1.0
W114358092423201,46,A&N Islands,South Andaman,FERRARGUNJ,Knoppuram,11.7325,92.70889,8.0,461.0,0.0,220.0,21.0,40.0,0.0,,175.0,42.0,17.0,29.0,2.0,1.0,,305.0,0.0
W114730092363001,47,A&N Islands,South Andaman,FERRARGUNJ,Mile Tilak,11.79472,92.65556,8.0,391.0,0.0,153.0,21.0,46.0,1.0,,135.0,38.0,10.0,29.0,6.0,0.0,,266.0,2.0
W114011092403601,48,A&N Islands,South Andaman,FERRARGUNJ,Mithakhari,11.01778,92.67306,7.0,223.0,0.0,73.0,35.0,0.0,0.0,,130.0,40.0,7.0,34.0,3.0,0.0,,125.0,1.0
W113444092403501,49,A&N Islands,South Andaman,PORT BLAIR,Nayasahar,11.57889,92.67639,8.0,190.0,0.0,67.0,18.0,10.0,0.0,,70.0,18.0,6.0,12.0,0.0,0.0,,118.0,0.0
W110705076071501,50,A&N Islands,South Andaman,MANJERI MUNICIPALITY,Manjeri,11.5375,92.64722,7.0,609.0,0.0,183.0,78.0,15.0,1.0,,140.0,26.0,18.0,68.0,4.0,0.0,,339.0,1.0
W113551092375801,51,A&N Islands,South Andaman,PORT BLAIR,Mamyo,11.5975,92.63278,8.0,169.0,0.0,67.0,25.0,0.0,0.0,,60.0,16.0,5.0,13.0,0.0,1.0,,112.0,
W113833092433601,52,A&N Islands,South Andaman,PORT BLAIR,Lamba Line,11.645,92.73083,8.0,326.0,0.0,140.0,43.0,2.0,2.0,,110.0,36.0,5.0,29.0,4.0,0.0,,223.0,1.0
W114317092435901,53,A&N Islands,South Andaman,FERRARGUNJ,Mount Harriyat,11.72139,92.73306,7.0,202.0,0.0,67.0,21.0,17.0,1.0,,100.0,22.0,11.0,3.0,1.0,0.0,,121.0,2.0
W122440092454401,54,A&N Islands,N&M Andaman,RONGET,Phooltala Basti,12.41167,92.76222,8.0,499.0,0.0,256.0,43.0,1.0,1.0,,225.0,22.0,41.0,19.0,4.0,0.0,,300.0,1.0
W130955092525301,55,A&N Islands,N&M Andaman,DIGLIPUR,Kishorinagar (Parangara),13.165,92.88167,7.0,157.0,0.0,61.0,18.0,5.0,1.0,,65.0,12.0,9.0,6.0,1.0,0.0,,95.0,1.0
W131850092563301,56,A&N Islands,N&M Andaman,DIGLIPUR,Milangram,13.31417,92.94111,8.0,931.0,0.0,281.0,113.0,61.0,3.0,,345.0,30.0,66.0,55.0,7.0,1.0,,515.0,0.0
W131434093023901,57,A&N Islands,N&M Andaman,DIGLIPUR,Shibpur,13.24306,93.04417,8.0,748.0,0.0,348.0,67.0,0.0,1.0,,260.0,74.0,18.0,63.0,2.0,1.0,,439.0,0.0
W131537093004901,58,A&N Islands,N&M Andaman,DIGLIPUR,Keralapuram,13.26,93.01333,8.0,481.0,0.0,165.0,32.0,47.0,1.0,,125.0,24.0,16.0,44.0,2.0,0.0,,279.0,6.0
W125022092511201,59,A&N Islands,N&M Andaman,MAYABUNDER,Pahalgaon,12.83944,92.85333,8.0,616.0,0.0,299.0,32.0,7.0,1.0,,250.0,22.0,47.0,25.0,2.0,1.0,,340.0,4.0
W124157092525401,60,A&N Islands,N&M Andaman,MAYABUNDER,Joypur,12.69944,92.88139,8.0,516.0,0.0,262.0,14.0,3.0,0.0,,225.0,22.0,41.0,5.0,0.0,0.0,,267.0,1.0
W123720092522201,61,A&N Islands,N&M Andaman,MAYABUNDER,Betapur,12.62583,92.92111,8.0,427.0,0.0,171.0,25.0,37.0,0.0,,175.0,16.0,33.0,13.0,1.0,0.0,,246.0,1.0
W120159092585201,62,A&N Islands,Havelock Island,PORT BLAIR,Havelock Island Jetty,12.04111,92.98083,8.0,1076.0,0.0,299.0,138.0,91.0,5.0,,280.0,80.0,19.0,107.0,8.0,1.0,,645.0,0.0
W120017093001701,63,A&N Islands,Havelock Island,PORT BLAIR,Vijaynagar,12.00528,93.00694,8.0,579.0,0.0,293.0,46.0,4.0,1.0,,235.0,62.0,19.0,32.0,7.0,0.0,,370.0,1.0
W222820086432601,64,A&N Islands,Havelock Island,CHAKULIA,Kalapathar,11.97472,93.00583,7.0,895.0,0.0,439.0,71.0,0.0,1.0,,285.0,78.0,22.0,87.0,3.0,0.0,,530.0,0.0
W120001092583401,65,A&N Islands,Havelock Island,PORT BLAIR,Krishnanagar,12.00028,92.97583,8.0,446.0,0.0,134.0,28.0,63.0,0.0,,195.0,60.0,11.0,3.0,3.0,0.0,,321.0,1.0
W114953093010801,66,A&N Islands,Neil Island,PORT BLAIR,Pearl Park Resort,11.84583,92.015,8.0,673.0,0.0,293.0,74.0,21.0,1.0,,240.0,64.0,19.0,49.0,2.0,0.0,,436.0,0.0
W114909093023001,67,A&N Islands,Neil Island,PORT BLAIR,Ramnagar,13.31417,92.94111,8.0,593.0,0.0,244.0,50.0,10.0,0.0,,240.0,54.0,26.0,23.0,3.0,1.0,,333.0,4.0
W175430082071501,68,Andhra Pradesh,Visakhapatnam,GUDEM KOTHAVEEDI,Dharakonda,17.9083,82.1208,7.0,410.0,0.0,171.0,25.0,8.0,41.0,,180.0,38.0,21.0,13.0,2.0,0.0,,,
W175300083260001,69,Andhra Pradesh,Visakhapatnam,BHEEMUNIPATNAM,Bhimunipatnam-1,17.8833,83.4333,7.0,760.0,0.0,189.0,82.0,20.0,97.0,,195.0,50.0,17.0,71.0,22.0,0.0,,,
W175300083260002,70,Andhra Pradesh,Visakhapatnam,BHEEMUNIPATNAM,Bhimunipatnam-2,17.8833,83.4333,7.0,2650.0,0.0,695.0,298.0,160.0,186.0,,780.0,184.0,78.0,164.0,140.0,1.0,,,
W172255082461501,71,Andhra Pradesh,Visakhapatnam,NAKKALLI,Gurrajupeta,17.3819,82.7708,7.0,2750.0,0.0,708.0,397.0,143.0,120.0,,780.0,200.0,68.0,274.0,26.0,1.0,,,
W173030082400002,72,Andhra Pradesh,Visakhapatnam,KOTAURATLA,Purshotta Puram,17.5083,82.6667,8.0,1400.0,0.0,549.0,99.0,70.0,55.0,,310.0,64.0,36.0,175.0,11.0,2.0,,,
W174536082330201,73,Andhra Pradesh,Visakhapatnam,KOYYURU,Pata K.d.peta,17.6708,82.3625,8.0,1150.0,0.0,476.0,71.0,45.0,53.0,,390.0,104.0,32.0,62.0,23.0,1.0,,,
W172730082510001,74,Andhra Pradesh,Visakhapatnam,S.RAYAVARAM,Rayavaram,17.4583,82.85,8.0,2140.0,0.0,610.0,298.0,80.0,23.0,,580.0,56.0,107.0,219.0,8.0,1.0,,,
W175904083282801,75,Andhra Pradesh,Visakhapatnam,VISAKHAPATNAM(U),Lawson's Bay,17.7306,83.3433,7.0,2740.0,0.0,952.0,269.0,135.0,24.0,,540.0,56.0,97.0,334.0,68.0,1.0,,,
W174929083162601,76,Andhra Pradesh,Visakhapatnam,VISAKHAPATNAM(U),Kancherapalem (Govt. Polytech,17.7342,83.28,8.0,1140.0,0.0,451.0,78.0,70.0,24.0,,320.0,48.0,49.0,117.0,0.0,1.0,,,
W170640082154501,77,Andhra Pradesh,Visakhapatnam,VISAKHAPATNAM(U),Pithapuram,17.7153,83.3319,7.0,690.0,0.0,214.0,71.0,35.0,18.0,,205.0,42.0,24.0,60.0,0.0,0.0,,,
W175407083145101,78,Andhra Pradesh,Visakhapatnam,VISAKHAPATNAM(U),Gopalpatnam PZ,17.7617,83.2203,8.0,800.0,0.0,281.0,71.0,36.0,17.0,,250.0,46.0,33.0,64.0,2.0,1.0,,,
W180421083274601,79,Andhra Pradesh,Visakhapatnam,VISAKHAPATNAM(U),Anandapuram PZ,17.8919,83.3711,7.0,350.0,0.0,165.0,14.0,13.0,5.0,,105.0,28.0,9.0,23.0,16.0,0.0,,,
W174914083182001,80,Andhra Pradesh,Visakhapatnam,VISAKHAPATNAM(U),Akkireddipalem PZ,17.7092,83.2072,7.0,780.0,0.0,360.0,35.0,35.0,5.0,,205.0,36.0,28.0,85.0,1.0,1.0,,,
W175353082592001,81,Andhra Pradesh,Visakhapatnam,BUCHCHAYYAPETA,L.Singavaram,17.8139,82.8167,7.0,950.0,0.0,464.0,35.0,29.0,3.0,,305.0,54.0,41.0,78.0,1.0,1.0,,,
W180441082255101,82,Andhra Pradesh,Visakhapatnam,PENDURTI,Bandavaripalem X road,17.7147,82.5906,8.0,1630.0,0.0,366.0,142.0,281.0,30.0,,560.0,64.0,97.0,98.0,30.0,1.0,,,
W175014082404101,83,Andhra Pradesh,Visakhapatnam,GOLUGONDA,Naganna Dorapalem,17.7014,82.4792,7.0,850.0,0.0,476.0,11.0,18.0,4.0,,275.0,56.0,33.0,69.0,5.0,1.0,,,
W270611093414001,84,Arunachal Pradesh,PAPUMPARE,Doimukh,Naharlagun I,27.1,93.69,8.0,367.3,0.0,104.0,32.0,15.0,40.0,,155.0,16.0,27.9,14.0,6.0,0.0,,197.5,
W272730096063001,85,Arunachal Pradesh,Changlang,Miao circle,Namphai,27.446084,96.10863,8.0,114.7,0.0,73.0,4.0,2.0,5.0,,75.0,6.0,15.0,1.3,0.0,0.0,,61.1,
W272500096024501,86,Arunachal Pradesh,Changlang,Miao circle,Namchik,27.414577,95.971986,8.0,122.0,0.0,61.0,14.18,10.0,6.0,,70.0,12.0,9.7,3.0,1.6,0.0,,65.0,
W275818095452601,87,Arunachal Pradesh,Lower Dibang valley,Roing,Kangklong,27.97171,95.75741,8.0,207.9,0.0,67.0,11.0,14.9,14.0,,45.0,16.0,1.0,14.0,9.0,0.0,,109.1,
W271200095313001,88,Arunachal Pradesh,Tirap,Khonsa circle,Deomali,27.196588,95.462758,7.0,146.4,0.0,43.0,18.0,14.0,4.0,,65.0,8.0,11.0,7.0,3.0,0.0,,77.5,
W274000095523001,89,Arunachal Pradesh,Lohit,Namsai circle,Lathow,27.73948,95.909805,7.0,47.0,0.0,55.0,11.0,3.0,0.0,,30.0,10.0,1.0,16.0,2.0,0.0,,25.0,
W270100095280001,90,Arunachal Pradesh,Tirap,Khonsa circle,Borduria,27.115189,95.413139,7.0,44.2,0.0,24.0,18.0,3.0,1.0,,45.0,6.0,7.0,2.0,0.0,0.0,,23.0,
W270030095280001,91,Arunachal Pradesh,Tirap,Khonsa circle,Hukanjuri,27.125802,95.437686,7.0,112.4,0.0,67.0,60.0,8.0,14.0,,155.0,6.0,34.0,7.0,4.0,0.0,,60.0,
W261210093062301,92,Assam,East Kaarbi-Anglong,Raha,Swarghati,26.2027778,93.10638889,9.0,337.9,12.0,238.0,28.36,0.0,13.0,,185.0,48.0,16.0,19.0,13.9,0.7,,196.6,
W261113092440601,93,Assam,Nagaon,Kathiatoli,Kathiatoli,26.1880556,92.70277778,9.0,505.4,9.0,232.0,77.99,45.0,13.0,,205.0,46.0,22.0,48.6,23.0,1.0,,297.2,
W261418091443401,94,Assam,Kamrup Metro,NorthGuwahati,Dirgheswari,26.2388889,91.73994444,9.0,369.7,15.0,244.2,53.0,19.0,0.0,,205.0,34.0,29.0,37.8,8.0,1.8,,197.8,
W260101093225401,95,Assam,Karbi Anglong,Bokajan,Terangaon,26.0225,93.38177778,8.7,246.0,6.0,195.0,14.18,8.0,0.0,,145.0,44.0,8.0,12.0,35.0,1.0,,142.5,
W261210093080001,96,Assam,East Kaarbi-Anglong,Howraghat,Langhing,26.2027778,93.13333333,8.7,249.1,6.0,140.0,28.36,11.0,31.0,,120.0,32.0,10.0,28.0,3.9,1.0,,144.2,
W254600093103001,97,Assam,Nagaon,Lanka,Lumding,25.758808,93.17457,9.0,540.2,21.0,275.0,39.0,26.0,18.0,,220.0,44.0,27.0,45.0,10.0,1.0,,311.4,
W261229093035601,98,Assam,East Kaarbi-Anglong,Samelangso,Dokmoka,26.2083333,93.06555556,9.0,197.8,12.0,153.0,11.0,8.0,23.0,,110.0,36.0,5.0,25.0,5.0,1.0,,114.8,
W230530080300001,99,Assam,East Kaarbi-Anglong,Howraghat,Manikpur,26.2497222,93.14638889,9.0,474.3,15.0,293.0,49.63,10.0,11.0,,140.0,26.0,18.0,65.7,38.0,1.0,,276.4,
W261453091412401,100,Assam,Kamrup,Bejera,Dhobartari,26.2481944,91.69025,9.0,449.5,12.0,238.0,155.98,12.0,0.5,,175.0,52.0,10.9,79.0,48.6,1.1,,240.8,
W262406092483001,101,Assam,Nagaon,Samulguri,Pahukata,26.4019444,92.80916667,9.0,728.1,21.0,446.0,89.0,22.0,0.0,,330.0,56.0,46.0,49.0,51.0,1.0,,423.5,
W261800092470001,102,Assam,Nagaon,Brahmpur,Bamuni Tinali,26.2952778,92.7925,9.0,312.1,6.0,153.0,39.0,20.0,0.0,,105.0,30.0,7.0,22.0,33.8,1.0,,182.1,
W262500092370001,103,Assam,Nagaon,Nagaon,Telia bebejia,26.4411111,92.64,9.0,286.6,12.0,177.0,25.0,12.0,0.0,,130.0,36.0,10.0,25.0,11.0,1.0,,165.0,
W260418092123701,104,Assam,Morigaon,Mayong,Silsang Namghar,26.1216667,92.3508333,9.0,214.5,3.0,92.0,25.0,11.0,0.0,,120.0,28.0,12.0,2.0,8.0,1.0,,121.1,
W261015091350501,105,Assam,Kamrup,Hajo,Sualkuchi,26.1674444,91.57083333,9.0,1143.0,18.0,543.0,145.35,4.8,2.0,,430.0,72.0,61.0,96.0,73.0,1.0,,607.0,
W261056093084901,106,Assam,East Kaarbi-Anglong,Howraghat,Phuloni,26.1708333,93.13666667,9.0,500.2,12.0,324.0,53.0,30.0,5.0,,255.0,48.0,33.0,44.0,14.6,1.0,,297.5,
W263532092560401,107,Assam,Nagaon,Kaliabor,Silghat,26.6069444,92.92916667,8.0,410.4,15.0,281.0,28.36,21.0,14.0,,225.0,52.0,23.0,29.0,11.0,1.0,,240.1,
W255639091070501,108,Assam,Goalpara,Rongjuli,Rajapara,25.9458333,91.11333333,8.0,348.1,6.0,269.0,18.0,1.0,1.0,,105.0,26.0,9.7,52.0,52.3,2.3,,185.0,
W255739093291801,109,Assam,Karbi Anglong,Bokajan,Amlokhi,25.9538889,93.48861111,8.0,1058.0,6.0,659.0,138.0,19.0,1.0,,255.0,32.0,42.0,177.0,43.8,1.0,,629.7,
W255447092574201,110,Assam,Nagaon,Lanka,Lanka,26.1880556,92.73611111,8.0,111.2,9.0,208.0,113.44,5.0,0.0,,230.0,24.0,41.0,55.0,1.0,0.0,,64.0,
W262900092293002,111,Assam,Nagaon,Kathiatoli,Bichamari,26.4013889,92.46,8.0,428.1,15.0,214.0,39.0,15.0,20.0,,200.0,54.0,16.0,28.0,3.0,1.0,,245.8,
W261521092134601,112,Assam,Morigaon,Bhurbandha,Garmari Gaon,26.2630556,92.22361111,8.0,468.9,21.0,360.0,18.0,0.0,2.0,,270.0,92.0,10.0,9.2,28.0,1.0,,270.8,
W255424093393901,113,Assam,Karbi Anglong,Bokajan,Lahorijan,25.9069444,93.66138889,8.0,670.8,9.0,232.0,110.0,13.0,36.0,,250.0,50.0,30.0,86.0,8.0,0.5,,393.6,
W255900092554401,114,Assam,Nagaon,Dhalpukhri,Jurapukhuri,25.9652778,92.94361111,8.0,493.5,9.0,195.0,25.0,17.0,7.0,,150.0,44.0,10.0,27.0,7.0,1.0,,284.6,
W263400092514301,115,Assam,Nagaon,Kaliabor,Dalapani,26.5672222,92.86222222,8.0,545.7,21.0,336.0,46.0,21.0,0.0,,270.0,66.0,25.0,27.0,21.0,1.0,,318.0,
W255817090570901,116,Assam,Goalpara,Rongjuli,Sarapara,25.9713889,90.9525,8.0,273.1,9.0,226.0,28.36,3.0,0.0,,100.0,24.0,9.7,55.0,32.0,1.6,,147.0,
W262356092135501,117,Assam,Morigaon,Lahorighat,Barukati,26.4,92.2319444,8.0,369.1,9.0,201.0,28.36,9.0,0.2,,190.0,18.0,35.0,10.0,3.0,1.0,,213.2,
W261723091424301,118,Assam,Kamrup,Bejera,Dora Kahara,26.2898889,91.71211111,8.0,469.7,9.0,238.0,209.0,3.0,1.0,,240.0,38.0,35.0,72.0,47.0,1.0,,266.5,
W272830095220001,119,Assam,Tinsukia,Guijan,Tinsukia,27.484937,95.351924,8.0,768.1,9.0,147.0,96.0,26.0,41.0,,230.0,32.0,36.0,50.0,19.0,0.0,,411.1,
W261136092144301,120,Assam,Morigaon,Morigaon,Kumoi,26.1936111,92.2452778,8.0,413.7,6.0,140.0,39.0,11.0,0.0,,135.0,22.0,19.0,21.0,4.0,1.4,,240.5,
W261615091131401,121,Assam,Nalbari,Barkhetri,Daulasal,26.2709722,91.22075,8.0,626.8,18.0,250.3,205.61,15.0,0.0,,270.0,78.0,18.0,80.0,39.0,1.0,,330.9,
W274510095082001,122,Assam,DHEMAJI,Murkongselek,Bijoypur,27.7803889,95.16677778,8.0,438.2,9.0,220.0,39.0,23.0,17.0,,185.0,36.0,23.0,30.0,11.0,1.0,,233.1,
W261136092144301,123,Assam,Morigaon,Morigaon,Kumoi,26.1936111,92.24527778,8.0,772.9,12.0,287.0,170.16,15.0,0.0,,265.0,72.0,20.6,112.0,6.0,1.1,,455.9,
W261529092184201,124,Assam,Morigaon,Morigaon,Basanaghat,26.2580556,92.3116667,8.0,270.6,9.0,98.0,32.0,14.0,0.0,,120.0,28.0,12.0,6.0,7.5,1.0,,155.3,
W272935095153601,125,Assam,Tinsukia,Guijan,Panitola,27.49542,95.254476,8.0,369.5,12.0,201.0,18.0,13.0,4.0,,150.0,26.0,21.0,20.0,17.0,0.0,,196.1,
W245247092530501,126,Assam,Cachar,Borkhola,Moinarbond,24.8533611,92.83588889,8.0,338.5,9.0,183.0,117.0,6.0,1.0,,170.0,38.0,18.0,56.0,13.0,1.0,,178.7,
W261427092154901,127,Assam,Morigaon,Bhurbandha,Pamibaghara,26.240898,92.26362,8.0,183.7,9.0,79.0,32.0,8.6,0.0,,95.0,22.0,9.7,11.0,3.9,1.0,,106.4,
W243503092010001,128,Assam,Cachar,Barjalenga,Dwarbond,24.5841667,92.01777778,8.0,513.2,6.0,128.2,290.69,9.0,1.6,,250.0,40.0,36.0,79.0,40.0,0.0,,277.8,
W261101092175101,129,Assam,Morigaon,Bhurbandha,Baghara,26.2266667,92.27583333,8.0,875.8,6.0,287.0,177.25,21.0,14.0,,230.0,58.0,20.6,114.0,37.0,1.0,,503.8,
W272624094123501,130,Assam,LAKHIMPUR,Boginadi,Pathalipam II,27.44,94.21,8.0,27.0,12.0,43.0,11.0,0.0,0.0,,30.0,4.0,5.0,13.0,8.0,0.0,,15.0,
W244314092204701,131,Assam,Karimganj,South Karimganj,Kayasthagram,24.7206944,92.34611111,8.0,378.8,12.0,220.0,127.62,15.2,1.0,,245.0,64.0,20.6,42.0,18.0,1.0,,200.0,
W243345092245001,132,Assam,Karimganj,Dullavcherra,Sarkaribari,24.56525,92.41,8.0,336.1,15.0,220.0,106.35,2.0,0.0,,195.0,56.0,13.0,40.0,29.0,0.0,,173.5,
W262900092293001,133,Assam,Nagaon,Batadara,Dhing,26.461485,92.47859,8.0,403.7,15.0,244.2,25.0,19.0,5.0,,190.0,28.0,29.0,32.0,9.0,0.9,,233.4,
W260708091584801,134,Assam,Kamrup,Dimaria,Samanta Pathar,26.1188889,91.98,8.0,109.6,0.0,79.0,14.18,0.0,0.0,,45.0,16.0,1.0,18.0,4.0,1.0,,62.0,
W261427092154901,135,Assam,Morigaon,Bhurbandha,Pamibaghara,26.240898,92.26362,8.0,120.0,0.0,61.0,18.0,5.0,0.0,,65.0,14.0,7.0,9.0,1.7,1.0,,69.0,
W273000094324001,136,Assam,DHEMAJI,Dhemaji,Dhemaji,27.5115833,94.58730556,8.0,196.1,0.0,134.0,7.09,3.0,2.0,,100.0,38.0,1.2,5.0,2.0,0.0,,101.5,
W272630094170001,137,Assam,LAKHIMPUR,Boginadi,Pathalipam,27.4476944,94.23002778,8.0,108.9,0.0,67.0,7.09,8.0,1.0,,65.0,18.0,5.0,2.0,2.0,0.0,,63.0,
W255600092423102,138,Assam,West Kaarbi-Anglong,Howraghat,Boithalangsu,25.9722222,92.58583333,8.0,113.4,0.0,73.0,14.18,4.0,0.0,,55.0,8.0,8.0,11.3,1.0,1.1,,65.8,
W255143092460601,139,Assam,West Kaarbi-Anglong,Langsomepi,Kalonga,25.8616667,92.76777778,8.0,163.4,0.0,37.0,25.0,4.0,2.0,,40.0,8.0,5.0,9.0,7.0,1.0,,94.0,
W260700092003001,140,Assam,Kamrup,Dimaria,Sonapur,26.1177778,91.96388889,8.0,312.1,0.0,67.0,53.0,47.4,5.0,,105.0,12.0,18.2,21.0,24.0,0.0,,179.4,
W261136092575701,141,Assam,East Kaarbi-Anglong,Samelangso,Dengaon,26.2125,92.97194444,8.0,117.6,0.0,67.0,18.0,0.0,5.0,,55.0,16.0,4.0,9.0,4.0,1.0,,68.0,
W255725093263301,142,Assam,Karbi Anglong,Bokajan,Manja,25.97,93.44080556,8.2,217.3,0.0,61.0,53.0,8.0,0.0,,65.0,14.0,7.0,34.0,5.0,0.0,,126.3,
W260359089494501,143,Assam,Kokrajhar,Rupshi,Rupshi,26.1180556,89.92255556,8.2,68.0,0.0,92.0,53.0,13.0,1.0,,120.0,42.0,4.0,14.0,4.0,0.0,,37.0,
W255049092535201,144,Assam,West Kaarbi-Anglong,Langsomepi,Kheronighat,25.8475,92.88416667,8.0,156.1,0.0,61.0,28.36,4.0,1.0,,65.0,24.0,1.2,15.0,2.0,0.0,,89.7,
W270200093501001,145,Assam,LAKHIMPUR,Narayanpur,Bhogpur Charali,27.0465556,93.83275,8.0,237.0,0.0,134.0,21.27,4.0,14.0,,110.0,26.0,11.0,12.0,2.0,0.0,,125.5,
W260500091400001,146,Assam,Kamrup,Rani,Rani,26.037,91.578,8.0,281.7,0.0,177.0,28.36,15.0,1.0,,140.0,36.0,12.0,18.0,9.0,1.0,,152.6,
W260925093480001,147,Assam,Karbi Anglong,Bokajan,Balipathar,26.1505556,93.7925,8.0,144.7,0.0,85.0,25.0,5.5,0.0,,90.0,22.0,8.0,8.0,4.7,0.0,,85.0,
W261618090273601,148,Assam,Dhubri,Chapar,Chapar,26.2768889,90.44686111,8.0,305.2,0.0,153.0,89.0,21.0,0.5,,160.0,58.0,4.0,32.0,14.0,1.0,,160.1,
W262730091370001,149,Assam,Kamrup,Rangia,Rangia,26.4375894,91.6236425,8.0,829.2,0.0,360.0,67.0,77.0,1.0,,230.0,46.0,28.0,57.0,76.0,1.1,,441.2,
W212350077274001,150,Assam,Biswanath,Behali,Behali,26.8323333,93.35775,8.0,140.2,0.0,73.0,11.0,3.0,5.0,,60.0,12.0,7.0,10.0,7.0,0.0,,74.0,
W261600090353001,151,Assam,Bongaigaon,Baitamari,Chalantapara,26.2377778,90.57644444,8.0,453.2,0.0,104.0,323.0,18.0,0.0,,315.0,56.0,42.0,76.0,35.0,0.4,,247.0,
W270721093512001,152,Assam,LAKHIMPUR,Karunabari,Harmoti,27.1228889,93.85394444,8.0,263.4,0.0,134.0,18.0,12.0,2.0,,110.0,24.0,12.0,10.0,14.0,0.0,,139.3,
W260418092123701,153,Assam,Morigaon,Kapilli,Silsang Namghar,26.1216667,92.35083333,8.0,174.7,0.0,92.0,18.0,15.0,0.0,,90.0,22.0,8.0,4.0,11.0,0.0,,100.0,
W272330095383001,154,Assam,Tinsukia,Margherita,Digboi,27.380266,95.615446,8.0,182.5,0.0,122.1,11.0,4.0,0.0,,100.0,20.0,12.0,5.0,1.0,0.0,,101.4,
W243830092211501,155,Assam,Karimganj,Patharkandi,Dhaulia,24.6240556,92.36227778,8.0,186.7,0.0,134.0,77.99,7.0,0.0,,150.0,26.0,21.0,24.1,8.0,0.0,,96.0,
W261130092510001,156,Assam,Nagaon,Kathiatoli,Doboka,26.1319444,92.88805556,8.1,59.0,0.0,49.0,11.0,1.0,7.0,,30.0,8.0,2.0,12.7,4.0,1.0,,34.0,
W292850079285501,157,Assam,Golaghat,Golaghat south,Garampani,26.3925,93.88055556,8.0,269.3,0.0,49.0,53.0,14.0,18.0,,100.0,26.0,8.0,22.0,6.0,0.0,,154.8,
W264450093150001,158,Assam,Biswanath,Biswanath,Bihupukhuri,26.7604722,93.26158333,8.0,343.5,0.0,122.1,49.63,11.0,10.0,,170.0,20.0,29.0,4.0,5.0,0.0,,182.7,
W261529092184201,159,Assam,Morigaon,Morigaon,Basanaghat,26.2580556,92.31166667,8.0,355.6,0.0,61.0,70.9,31.0,5.0,,145.0,50.0,5.0,11.0,14.0,1.0,,204.0,
W261015091350501,160,Assam,Kamrup,Hajo,Sualkuchi,26.1674444,91.57083333,8.0,1207.0,0.0,488.0,106.35,53.0,9.0,,295.0,110.0,4.8,86.0,59.0,1.2,,636.1,
W270700094064201,161,Assam,LAKHIMPUR,Lakhimpur,Panigaon,27.1374444,94.11066667,8.0,161.4,0.0,128.2,7.09,0.0,14.0,,100.0,20.0,12.0,6.0,2.0,1.0,,93.0,
W265405093422901,162,Assam,Biswanath,Pub Chayduar,Kolabari,26.9014444,93.70805556,8.0,197.1,0.0,153.0,7.09,0.0,30.3,,115.0,22.0,15.0,11.0,5.0,1.0,,112.2,
W260033093154301,163,Assam,Karbi Anglong,Langsomepi,Phonglangso,26.0266944,93.23236111,8.0,297.3,9.0,256.4,14.18,3.0,0.0,,165.0,30.0,22.0,28.0,3.0,1.0,,173.1,
W260829092491102,164,Assam,Nagaon,Kathiatoli,Zebra Khua,26.1386111,92.80861111,8.0,130.0,0.0,92.0,14.18,1.0,34.0,,85.0,14.0,12.0,15.0,1.0,1.0,,76.0,
W260107093380101,165,Assam,Karbi Anglong,Bokajan,Hidipi,26.0098667,93.63186111,8.0,290.5,0.0,177.0,28.36,9.0,7.0,,165.0,50.0,10.0,10.0,9.4,1.0,,169.1,
W262130090370001,166,Assam,Bongaigaon,Baitamari,North salmara,26.3715,90.58558333,8.0,495.6,0.0,122.1,283.6,7.0,0.0,,190.0,42.0,21.0,90.0,48.0,0.0,,273.2,
W271518095141701,167,Assam,Dibrugarh,Joypur,Jaipur Naharani,27.255,95.23805556,8.0,175.5,0.0,153.0,11.0,8.0,1.0,,30.0,4.0,5.0,43.0,12.0,0.0,,93.0,
W262955091043001,168,Assam,Barpeta,Howly,Sarupeta,26.4480278,91.07480556,8.0,613.4,0.0,293.0,60.0,21.0,1.0,,320.0,72.0,34.0,4.0,6.0,0.6,,318.8,
W255600092423101,169,Assam,West Kaarbi-Anglong,Howraghat,Donkamokam,25.9327778,92.71,8.0,124.8,0.0,79.0,28.36,1.0,0.0,,80.0,22.0,6.0,9.0,2.0,1.0,,71.0,
W263030091360001,170,Assam,Kamrup,Rangia,Darkuchi,26.5412778,91.60255556,8.0,298.9,0.0,134.0,152.0,15.0,0.0,,85.0,20.0,8.0,88.0,34.0,0.0,,160.7,
W261400091370001,171,Assam,Kamrup,Hajo,Alikash Adarsh,26.2257778,91.61447222,8.0,1387.0,0.0,391.0,326.14,15.0,1.0,,455.0,108.0,45.0,118.0,65.0,1.0,,773.4,
W260500091400001,172,Assam,Kamrup,Rani,Rani,26.0377,91.5839,8.0,53.0,0.0,85.0,18.0,8.0,0.0,,25.0,6.0,2.0,25.0,12.0,0.2,,27.8,
W270730093543001,173,Assam,LAKHIMPUR,Karunabari,Laluk,27.11975,93.93016667,8.0,460.3,0.0,110.0,39.0,11.0,42.0,,190.0,14.0,38.0,8.0,4.0,0.0,,248.7,
W243611092315101,174,Assam,Hailakandi,Lala,Lakhinagar,24.6031389,92.531361,8.0,304.0,0.0,214.0,82.0,2.0,0.0,,225.0,22.0,41.0,21.0,3.0,0.0,,158.0,
W260227091213401,175,Assam,Kamrup,Chhaygaon,Chhaygaon,26.0411111,91.35972222,8.0,266.7,0.0,110.0,25.0,55.0,4.0,,80.0,22.0,6.0,32.0,19.8,1.0,,140.5,
W261019092562001,176,Assam,Nagaon,Jugijan,Haldiati Sub Bt,26.1725,92.94333333,8.0,201.6,0.0,85.0,35.45,5.1,0.0,,65.0,12.0,8.0,22.0,5.0,1.1,,116.1,
W262009092454101,177,Assam,Nagaon,Brahmpur,Hatenibatha,26.3361111,92.76138889,8.0,581.6,0.0,317.0,155.98,1.0,0.0,,335.0,40.0,57.0,67.0,2.8,1.0,,349.7,
W264315091550001,178,Assam,Udalguri,Paneri,Paneri,26.732836,91.959796,8.0,156.0,0.0,79.0,46.0,24.0,0.0,,75.0,10.0,12.0,26.0,8.0,0.0,,81.4,
W263430091540001,179,Assam,Udalguri,Kalaigaon,Kalaigaon,26.570366,91.981299,8.0,260.3,0.0,110.0,198.52,14.0,0.2,,140.0,26.0,18.0,69.0,38.0,1.0,,140.3,
W230530080300001,180,Assam,Bongaigaon,Manikpur,Manikpur,26.4687778,90.80183333,8.0,457.9,0.0,244.2,82.0,7.0,0.0,,260.0,70.0,20.6,14.0,6.0,1.0,,234.2,
W264505092083001,181,Assam,Darrang,Udalguri,Goroibari,26.7518611,92.14275,8.0,125.7,0.0,116.0,56.72,9.2,0.0,,65.0,16.0,6.0,34.0,4.0,0.0,,68.0,
W260501092132101,182,Assam,Morigaon,Borhampur,Daponibari N,26.1438889,92.37416667,8.0,74.0,0.0,43.0,11.0,4.0,0.0,,30.0,6.0,4.0,9.0,2.0,1.0,,43.0,
W260735092150801,183,Assam,Morigaon,Mayong,Deosal,26.1263889,92.2525,8.0,65.0,0.0,43.0,11.0,4.0,0.0,,40.0,4.0,7.0,4.5,4.0,1.0,,37.0,
W271617094013101,184,Assam,LAKHIMPUR,Lakhimpur,Dejoo,27.2716389,94.02529722,8.0,88.0,0.0,43.0,18.0,3.0,0.0,,45.0,12.0,4.0,4.0,2.0,1.0,,51.0,
W240618087404801,185,Assam,Goalpara,Dudhnoi,Damra,25.9291667,90.77638889,8.0,128.3,6.0,49.0,110.0,6.0,0.5,,50.0,18.0,1.2,56.0,38.0,1.2,,66.0,
W255830091143001,186,Assam,Kamrup,Boko,Boko,25.9833333,91.245,8.0,208.5,0.0,55.0,25.0,35.0,0.0,,95.0,26.0,7.0,14.0,3.0,1.0,,109.6,
W260831093511001,187,Assam,Karbi Anglong,Bokajan,Bokajan I,26.0286111,93.76722222,8.0,212.6,0.0,49.0,42.54,3.0,25.0,,75.0,22.0,5.0,21.0,1.0,0.0,,123.7,
W262730091370001,188,Assam,Kamrup,Rangia,Rangia,26.4375889,91.606975,8.0,858.4,0.0,348.0,219.79,20.0,1.0,,320.0,14.0,69.0,78.7,58.0,1.0,,464.5,
W265041092191601,189,Assam,Udalguri,Mazbat,Hatitopagaon,26.7652778,92.31,7.8,227.3,0.0,61.0,96.0,31.0,3.0,,100.0,20.0,12.0,37.0,15.0,0.0,,120.0,
W264202092130001,190,Assam,Udalguri,Rowta,Rowta chariali,26.711652,92.205556,7.8,723.7,0.0,189.0,262.33,7.0,2.0,,175.0,38.0,19.4,98.0,80.0,0.8,,397.0,
W264325091590001,191,Assam,Udalguri,Paneri,Bengbari,26.732836,92.20763889,8.0,144.0,0.0,85.0,77.99,33.0,0.0,,115.0,14.0,19.0,31.0,10.0,0.0,,78.0,
W261723091424301,192,Assam,Kamrup,Bejera,Dora Kahara,26.301479,91.59475,8.0,536.0,0.0,220.0,53.0,85.0,2.0,,205.0,46.0,22.0,40.0,18.0,1.0,,282.1,
W262913090375901,193,Assam,Bongaigaon,Baitamari,Chaprakata (Dankinamari),26.48725,90.63341667,8.0,260.7,0.0,171.0,49.63,7.0,0.0,,180.0,50.0,13.0,12.0,2.0,0.0,,138.4,
W235153091200701,194,Assam,Karimganj,Old Agartala,R.K nagar,24.56658,92.4610556,8.0,145.7,0.0,122.1,113.44,1.4,1.0,,125.0,30.0,12.0,39.0,20.0,0.2,,75.0,
W261148093474301,195,Assam,Karbi Anglong,Bokajan,Saphapani,26.1963889,93.79527778,7.7,89.0,0.0,37.0,32.0,0.0,0.0,,35.0,10.0,2.0,19.0,2.0,0.0,,52.0,
W255939093243801,196,Assam,Karbi Anglong,Bokajan,Mohendijua,25.9945,93.41102778,7.7,125.4,0.0,24.0,39.0,2.0,1.0,,45.0,12.0,4.0,13.0,2.0,0.0,,73.0,
W261315093503201,197,Assam,Karbi Anglong,Bokajan,Deopani,26.2213889,93.8225,8.0,290.3,0.0,159.0,39.0,8.0,0.0,,140.0,38.0,10.9,24.0,3.0,1.0,,167.8,
W264253091424301,198,Assam,Baksa,Goreswar,Bangalipara,26.715,93.8225,8.0,462.0,0.0,250.3,39.0,36.0,1.0,,275.0,30.0,49.0,4.0,2.0,0.5,,246.0,
W270200093543001,199,Assam,LAKHIMPUR,Bihpuria,Bihpuria,27.0235194,93.8225,8.0,149.3,0.0,92.0,11.0,0.0,0.0,,85.0,24.0,6.0,4.0,4.0,0.0,,80.0,
W261521092134601,200,Assam,Morigaon,Mayong,Garmari Gaon,26.2630556,93.8225,8.0,251.9,0.0,67.0,32.0,11.0,34.1,,140.0,28.0,17.0,5.0,2.0,1.0,,146.1,
W255745093350601,201,Assam,Karbi Anglong,Bokajan,Dillai,25.9658333,93.8225,8.0,711.1,0.0,159.0,145.0,35.0,1.0,,265.0,62.0,27.0,61.0,7.0,0.0,,412.2,
W260848092095601,202,Assam,Kamrup,Dimaria,Khetri II,26.1466667,92.16555556,8.0,328.9,0.0,134.0,42.54,30.6,7.0,,125.0,18.0,19.0,24.0,20.2,0.4,,187.8,
W260348093110604,203,Assam,Karbi Anglong,Langsomepi,Bokoliaghat,26.0588889,93.2025,7.6,160.9,0.0,37.0,53.0,2.0,15.0,,30.0,8.0,2.0,27.4,15.0,0.0,,93.0,
W264921092471001,204,Assam,SONITPUR,Balipara,Balipara,26.8230556,92.78186111,8.0,256.2,0.0,110.0,25.0,20.0,0.0,,90.0,24.0,7.0,17.0,16.0,0.0,,136.7,
W263750091341501,205,Assam,Baksa,Tamulpur,Tamulpur,26.6065278,91.58047222,8.0,854.3,0.0,366.0,262.33,6.0,11.0,,350.0,42.0,59.0,85.0,69.0,1.0,,471.5,
W260115091194001,206,Assam,Kamrup,Chhaygaon,Bamunigaon,26.0236111,91.32444444,8.0,169.1,0.0,104.0,28.36,13.0,0.0,,65.0,18.0,5.0,24.0,8.0,1.0,,90.0,
W264353091332001,207,Assam,Baksa,Tamulpur,Kumarikata,26.7327778,91.55636111,8.0,651.7,0.0,305.0,195.0,7.0,3.0,,245.0,40.0,35.0,79.0,57.0,0.0,,351.0,
W245820092350001,208,Assam,Cachar,Kalain,Kalain,24.9681389,92.40863889,8.0,486.0,0.0,195.0,248.15,12.0,2.0,,260.0,42.0,37.6,76.0,42.0,0.0,,252.3,
W262200090380001,209,Assam,Bongaigaon,Srijangram,Abhayapuri,26.3385278,90.66238889,8.0,216.0,0.0,79.0,141.8,8.0,0.0,,60.0,20.0,2.0,67.0,34.0,0.2,,114.5,
W260348093110605,210,Assam,Karbi Anglong,Langsomepi,Dishobai,26.0099444,93.26277778,8.0,341.1,0.0,244.2,28.36,3.0,6.0,,155.0,44.0,10.9,36.0,12.0,1.0,,197.9,
W262830090541001,211,Assam,Barpeta,Chakchaka,Sorbhog,26.4724722,90.88069444,8.0,408.8,0.0,177.0,131.0,30.0,0.0,,185.0,70.0,2.0,53.0,26.2,0.5,,211.2,
W271800095513001,212,Assam,Tinsukia,Margherita,Lekhapani,27.319722,95.818056,8.0,150.5,0.0,73.0,11.0,17.0,1.0,,85.0,18.0,9.7,3.0,4.0,0.0,,80.0,
W262930090093001,213,Assam,Kokrajhar,Dotoma,Dotma,26.4846111,90.16630556,8.0,241.0,0.0,134.0,42.54,34.0,0.0,,165.0,46.0,12.0,8.0,3.0,0.0,,126.6,
W263630092230001,214,Assam,SONITPUR,Balipara,Barchola,26.6054167,92.38016667,8.0,163.6,0.0,55.0,28.36,9.0,12.0,,55.0,10.0,7.0,15.0,7.0,0.0,,87.0,
W271952095511101,215,Assam,Tinsukia,Margherita,Tirap Gate,27.333138,95.848262,8.0,181.4,0.0,49.0,21.27,20.0,0.0,,70.0,10.0,11.0,5.0,2.0,0.0,,96.0,
W245920092300001,216,Assam,Cachar,Kalain,Digharkhal,24.9994167,92.51302778,7.0,370.8,0.0,85.0,326.14,51.0,5.0,,410.0,72.0,56.0,55.0,25.0,0.0,,200.6,
W264800092543501,217,Assam,SONITPUR,Naduar,Tupia,26.7990278,92.91105556,7.0,231.2,0.0,134.0,7.09,11.0,4.0,,115.0,20.0,16.0,2.0,16.0,0.0,,123.4,
W261900093523001,218,Assam,Karbi Anglong,Bokajan,Silanijan,26.3216667,93.87222222,7.0,178.5,0.0,24.0,49.63,11.0,14.0,,45.0,4.0,8.0,27.5,11.0,0.0,,102.2,
W262044092445401,219,Assam,Nagaon,Rupohi,Gomotha,26.3452778,92.74861111,7.0,596.6,0.0,378.5,49.63,13.0,22.0,,235.0,6.0,53.4,55.0,21.0,1.0,,335.7,
W264208092282801,220,Assam,SONITPUR,Dhekiajuli,Dhekiajuli,26.7031389,92.47083333,7.0,198.1,0.0,79.0,25.0,14.0,7.0,,70.0,14.0,8.0,15.0,8.0,0.0,,105.6,
W260406091362101,221,Assam,Kamrup,Rani,Rani II,26.041,91.585,7.0,71.0,0.0,73.0,21.27,8.0,1.0,,40.0,6.0,6.0,16.0,12.0,0.0,,38.0,
W263330090230001,222,Assam,Chirang,Sidli,Garubassa,26.5691667,90.37527778,7.0,126.7,0.0,67.0,77.99,13.0,4.0,,55.0,14.0,5.0,46.6,7.4,0.0,,66.0,
W243745092402801,223,Assam,Hailakandi,Algapur,Burakhai,24.6289722,92.67444444,7.0,213.5,0.0,98.0,120.53,2.0,0.0,,85.0,26.0,5.0,50.0,29.0,0.0,,109.0,
W263800090230001,224,Assam,Chirang,Bengtol,Runikhata,26.6348611,90.38402778,7.3,106.9,0.0,24.0,46.0,7.2,7.0,,80.0,20.0,7.0,2.0,3.0,0.0,,57.4,
W272337095535701,225,Assam,Tinsukia,Margherita,Jagun,27.383005,95.903574,7.0,49.0,0.0,24.0,11.0,2.0,3.0,,30.0,4.0,5.0,4.0,1.0,0.0,,26.0,
W263409090090001,226,Assam,Kokrajhar,Dotoma,Serfanguri,26.5541667,90.15277778,7.0,151.4,0.0,92.0,77.99,10.0,1.0,,200.0,20.0,36.4,5.0,3.0,0.0,,79.0,
W243909092531001,227,Assam,Cachar,Palanghat,Palanghat,25.2573056,91.74127778,7.0,576.1,0.0,208.0,219.79,20.0,0.0,,325.0,44.0,52.0,47.0,19.0,0.0,,304.7,
W255810090564001,228,Assam,Goalpara,Rongjuli,Rongjuli,25.9672222,90.925,7.0,136.8,0.0,153.0,70.9,10.0,0.0,,105.0,38.0,2.0,49.0,19.0,0.0,,71.0,
W245200092340001,229,Assam,Karimganj,Badarpur,Badarpur,24.8743889,92.58333333,7.0,289.3,0.0,49.0,198.52,12.0,2.0,,90.0,30.0,4.0,77.0,35.0,0.0,,147.4,
W245620092443001,230,Assam,Cachar,Borkhola,Borkhola,24.6070556,92.72716667,7.0,224.5,0.0,67.0,191.43,8.0,1.0,,170.0,28.0,24.0,65.0,25.0,0.0,,117.7,
W243330092480001,231,Assam,Cachar,Barjalenga,Borjalinga,24.6651111,92.71877778,6.7,89.0,0.0,85.0,60.0,2.0,1.0,,50.0,8.0,7.0,33.1,16.4,0.0,,47.0,
W263400090180001,232,Assam,Kokrajhar,Kokrajhar,Bisumari,26.5608333,90.29138889,7.0,74.0,0.0,61.0,56.72,16.0,3.0,,150.0,10.0,30.0,3.0,4.0,0.0,,39.0,
W244725093001901,233,Assam,Cachar,Lakhipur,Fulertol,24.7903056,93.0055,7.0,224.8,0.0,85.0,148.89,14.0,0.0,,60.0,14.0,6.0,68.0,46.0,0.2,,120.3,
W221445068573001,234,Assam,Goalpara,Balijana,Dwarka,26.0563889,90.49527778,7.0,128.2,0.0,85.0,117.0,10.0,1.0,,95.0,20.0,11.0,49.0,17.0,0.0,,67.0,
W245805092343101,235,Assam,Cachar,Palanghat,Atalbasti,24.6485833,92.88222222,6.0,164.2,0.0,37.0,134.71,9.0,2.0,,40.0,10.0,4.0,55.0,39.0,0.0,,88.0,
W260046090420201,236,Assam,Goalpara,Krishnai,Salpara,26.0127778,90.70083333,6.2,80.0,0.0,55.0,127.62,7.7,1.0,,55.0,14.0,5.0,56.0,27.0,0.0,,42.0,
W260200090253001,237,Assam,Goalpara,Balijana,Baida,26.0258333,90.41638889,6.0,60.0,0.0,43.0,85.08,8.0,1.0,,65.0,10.0,9.7,35.0,6.0,0.0,,32.0,
W252105091233801,238,Assam,Cachar,Barjalenga,Kathaltila,25.210588,91.233857,6.0,71.0,0.0,24.0,77.99,10.0,1.0,,55.0,4.0,11.0,28.0,11.0,0.0,,39.0,
W250600086294501,239,Assam,Cachar,Lakhipur,Tarapur,24.8298056,92.97966667,5.1,297.1,0.0,31.0,219.79,6.0,1.0,,190.0,30.0,27.9,45.9,27.0,0.0,,156.7,
W244503085400701,240,Bihar,Saran,Ekma,Bishunpur,25.97,84.6,8.0,650.0,0.0,171.0,53.0,53.0,65.0,0.0,170.0,50.0,11.0,65.0,13.0,0.0,,423.0,
W254818084431201,241,Bihar,Saran,Chapra,Chirand,25.81,84.72,8.0,642.0,0.0,195.0,82.0,23.0,30.0,0.0,190.0,66.0,6.0,52.0,15.0,1.0,,417.0,
W221719084182901,242,Bihar,Saran,Ekma,Ekma,25.97,84.55,8.0,461.0,0.0,128.0,67.0,14.0,12.0,0.0,120.0,28.0,12.0,46.0,7.0,1.0,,300.0,
W254930084533001,243,Bihar,Saran,Garkha,Garkha,25.83,84.89,8.0,398.0,0.0,116.0,43.0,11.0,33.0,0.0,110.0,30.0,9.0,35.0,7.0,0.0,,259.0,
W260340084413001,244,Bihar,Saran,Baniapur,Manopali,26.06,84.69,8.0,929.0,0.0,262.0,107.0,37.0,71.0,0.0,285.0,106.0,23.0,76.0,12.0,1.0,,604.0,
W255845084521501,245,Bihar,Saran,Marhaura,Marhaura,25.98,84.87,8.0,617.0,0.0,189.0,36.0,94.0,10.0,0.0,200.0,60.0,12.0,45.0,11.0,0.0,,401.0,
W254800084511901,246,Bihar,Saran,Garkha,Minapur,25.8,84.86,8.0,1470.0,0.0,329.0,192.0,95.0,75.0,0.0,415.0,136.0,18.0,122.0,18.0,0.0,,956.0,
W254933084434001,247,Bihar,Saran,Jalalpur,Nagra,25.83,84.73,8.0,511.0,0.0,244.0,11.0,11.0,31.0,0.0,170.0,50.0,11.0,32.0,12.0,0.0,,332.0,
W260944084405101,248,Bihar,Siwan,Bhagwanpur,Malmalia Chowk,26.16,84.68,8.0,320.0,0.0,92.0,25.0,23.0,31.0,0.0,130.0,40.0,7.0,5.0,14.0,1.0,,208.0,
W260613084403301,249,Bihar,Siwan,Bhagwanpurhat,Sarripatti,26.1,84.68,8.0,1805.0,0.0,384.0,231.0,168.0,105.0,0.0,435.0,150.0,15.0,183.0,54.0,0.0,,1173.0,
W261145084291501,250,Bihar,Siwan,Barharia,Tarwara,26.2,84.49,8.0,678.0,0.0,232.0,75.0,24.0,21.0,0.0,215.0,72.0,9.0,52.0,7.0,1.0,,441.0,
W255237085223701,251,Bihar,Vaishali,Goraul,Baksama,25.88,85.38,8.0,404.0,0.0,201.0,14.0,4.0,11.0,0.0,145.0,54.0,2.0,25.0,2.0,0.0,,263.0,
W255530085202801,252,Bihar,Vaishali,Goraul,Chandpur Kala,25.93,85.34,8.0,607.0,0.0,244.0,53.0,17.0,12.0,0.0,205.0,70.0,7.0,42.0,6.0,0.0,,395.0,
W255615085204501,253,Bihar,Vaishali,Garaul,Garaul,25.94,85.35,8.2,693.0,0.0,159.0,124.0,17.0,26.0,0.0,220.0,66.0,11.0,51.0,12.0,1.0,,450.0,
W185230079173001,254,Bihar,Vaishali,Vaishali,Hajipur,25.7,85.23,8.0,556.0,0.0,189.0,28.0,35.0,51.0,0.0,205.0,70.0,7.0,30.0,6.0,1.0,,361.0,
W252620086043701,255,Bihar,Vaishali,Goraul,Harpur,25.92,85.38,8.0,560.0,0.0,207.0,21.0,47.0,42.0,0.0,215.0,64.0,13.0,29.0,5.0,1.0,,364.0,
W254100085120002,256,Bihar,Vaishali,Bidupur,Kachanpur,25.68,85.2,8.0,426.0,0.0,226.0,14.0,5.0,10.0,0.0,140.0,44.0,7.0,31.0,6.0,0.0,,277.0,
W253857085281701,257,Bihar,Vaishali,Mahnar,Kumharkal,25.65,85.47,8.0,1089.0,0.0,378.0,46.0,132.0,14.0,0.0,360.0,132.0,7.0,71.0,9.0,0.0,,708.0,
W253615085310001,258,Bihar,Vaishali,Mahnar,Mahnar,25.6,85.52,8.0,438.0,0.0,116.0,25.0,35.0,65.0,0.0,105.0,32.0,6.0,46.0,10.0,0.0,,285.0,
W253749085214301,259,Bihar,Vaishali,Bidupur,Mathura,25.63,85.36,8.0,517.0,0.0,177.0,11.0,31.0,82.0,0.0,155.0,38.0,15.0,44.0,6.0,0.0,,336.0,
W254814085355201,260,Bihar,Vaishali,Patepur,Mushari Tola,25.8,85.6,8.0,834.0,0.0,250.0,50.0,58.0,97.0,0.0,285.0,108.0,4.0,58.0,3.0,0.0,,542.0,
W254954085105101,261,Bihar,Vaishali,Lalganj,Namidh,25.83,85.18,8.0,850.0,0.0,311.0,71.0,34.0,44.0,0.0,300.0,110.0,6.0,53.0,10.0,0.0,,553.0,
W254629085142001,262,Bihar,Vaishali,Bhagwanpur (Sarai),Nonepur,25.78,85.24,8.0,769.0,0.0,275.0,28.0,58.0,75.0,0.0,275.0,96.0,9.0,47.0,5.0,0.0,,500.0,
W253942085273901,263,Bihar,Vaishali,Sahdei Bujurg,Sahdei Bujurg,25.66,85.46,8.0,1245.0,0.0,329.0,75.0,180.0,75.0,0.0,395.0,134.0,15.0,98.0,8.0,0.0,,809.0,
W254100085120001,264,Bihar,Vaishali,Hajipur,Sahjadpur,25.68,85.2,8.0,565.0,0.0,268.0,18.0,5.0,43.0,0.0,200.0,54.0,16.0,34.0,8.0,0.0,,367.0,
W255059085263101,265,Bihar,Vaishali,Mahua,Tariya Supaul,25.85,85.44,8.0,508.0,0.0,140.0,43.0,21.0,67.0,0.0,210.0,70.0,9.0,12.0,11.0,0.0,,330.0,
W255755085080301,266,Bihar,Vaishali,Vaishali,Thukaiya,25.97,85.13,8.0,452.0,0.0,159.0,11.0,40.0,50.0,0.0,150.0,46.0,9.0,28.0,11.0,0.0,,294.0,
W260949084594701,267,Bihar,Muzaffarpur,Paroo,Dewaria,26.16,85.0,8.0,798.0,0.0,189.0,153.0,17.0,10.0,0.0,340.0,102.0,21.0,23.0,6.0,0.0,,519.0,
W261743084571301,268,Bihar,Muzaffarpur,Sahebganj,Rajwara,26.3,84.95,8.0,630.0,0.0,293.0,11.0,46.0,9.0,0.0,220.0,68.0,12.0,39.0,7.0,0.0,,410.0,
W262005084511901,269,Bihar,E. Champaran,Kesaria,Lala Chapra,26.33,84.86,8.0,535.0,0.0,140.0,39.0,36.0,75.0,0.0,135.0,42.0,7.0,50.0,18.0,1.0,,348.0,
W215611075081001,270,Bihar,E. Champaran,Kalyanpur,Rajpur,26.51,84.84,8.0,558.0,0.0,128.0,110.0,27.0,10.0,0.0,150.0,32.0,17.0,59.0,17.0,0.0,,363.0,
W253814085002601,271,Bihar,Patna,Danapur,Khaspur,25.64,85.01,8.0,356.0,0.0,177.0,14.0,7.0,3.0,0.0,125.0,40.0,6.0,20.0,2.0,0.0,,231.0,
W253441084532402,272,Bihar,Patna,Bhita,Bishambharpur,25.58,84.89,8.0,310.0,0.0,134.0,18.0,8.0,1.0,0.0,135.0,32.0,13.0,6.0,2.0,0.0,,202.0,
W253109084511501,273,Bihar,Patna,Bihta,Amhara,25.52,84.85,8.0,349.0,0.0,159.0,18.0,9.0,1.0,0.0,140.0,48.0,5.0,12.0,2.0,0.0,,227.0,
W252930084515201,274,Bihar,Patna,Bikram,Mariyawa,25.49,84.86,8.0,256.0,0.0,104.0,14.0,5.0,20.0,0.0,95.0,32.0,4.0,12.0,1.0,0.0,,166.0,
W252837084493301,275,Bihar,Patna,Bikram,Din Bigha,25.48,84.83,8.0,425.0,0.0,226.0,11.0,2.0,7.0,0.0,170.0,56.0,7.0,14.0,1.0,0.0,,276.0,
W253615085121501,276,Bihar,Patna,Patna Sadar,Patna-City,25.6,85.12,8.0,1054.0,0.0,317.0,121.0,54.0,46.0,0.0,305.0,54.0,41.0,76.0,36.0,0.0,,685.0,
W253015085174501,277,Bihar,Patna,Fatwa,Fatuha,25.5,85.3,8.0,507.0,0.0,189.0,43.0,20.0,20.0,0.0,170.0,62.0,4.0,35.0,2.0,0.0,,330.0,
W252745085314501,278,Bihar,Patna,Bakhtiarpur,Bakhtiarpur,25.46,85.53,8.0,677.0,0.0,305.0,46.0,15.0,2.0,0.0,250.0,24.0,46.0,34.0,5.0,0.0,,440.0,
W253015085174502,279,Bihar,Patna,Mokama,Mokama,25.5,85.3,8.0,373.0,0.0,128.0,28.0,34.0,1.0,0.0,120.0,40.0,5.0,24.0,4.0,0.0,,242.0,
W253018084574001,280,Bihar,Patna,Naubatpur,Snehitola,25.51,85.73,8.0,808.0,0.0,201.0,96.0,52.0,60.0,0.0,270.0,68.0,24.0,55.0,7.0,0.0,,525.0,
W252114085592801,281,Bihar,Patna,Mokama,Maranchi,25.35,85.99,8.0,673.0,0.0,232.0,60.0,41.0,9.0,0.0,200.0,56.0,15.0,58.0,3.0,0.0,,437.0,
W253815084531501,282,Bihar,Patna,Maner,Maner,25.64,84.89,8.0,687.0,0.0,177.0,96.0,33.0,28.0,0.0,270.0,44.0,39.0,31.0,2.0,0.0,,447.0,
W252515084521301,283,Bihar,Patna,Bikram,Noniatola,25.42,84.87,8.0,954.0,0.0,317.0,96.0,41.0,40.0,0.0,340.0,62.0,45.0,56.0,6.0,0.0,,620.0,
W252030084514501,284,Bihar,Patna,Paliganj,Bharatpura,25.34,84.86,8.0,719.0,0.0,323.0,43.0,11.0,20.0,0.0,195.0,66.0,7.0,68.0,7.0,1.0,,467.0,
W252000084493601,285,Bihar,Patna,Bhita,Bali Pakar,25.33,84.83,8.0,1524.0,0.0,506.0,142.0,76.0,59.0,2.0,500.0,102.0,60.0,90.0,46.0,1.0,,991.0,
W252701085051601,286,Bihar,Patna,Punpun,Deokali,25.45,85.09,8.0,375.0,0.0,165.0,21.0,11.0,3.0,0.0,150.0,32.0,17.0,15.0,2.0,0.0,,244.0,
W252739085071801,287,Bihar,Patna,Dhanrua,Nima halt,25.46,85.12,8.0,423.0,0.0,201.0,21.0,8.0,4.0,0.0,160.0,22.0,26.0,18.0,2.0,0.0,,275.0,
W253217085013501,288,Bihar,Patna,Phulwari Sharif,Hulas Chak,25.54,85.03,8.0,1102.0,0.0,403.0,117.0,41.0,7.0,0.0,300.0,14.0,64.0,110.0,7.0,0.0,,716.0,
W253430085073501,289,Bihar,Patna,Phulwari Sharif,Etwarpur,25.58,85.13,8.0,536.0,0.0,165.0,53.0,21.0,29.0,0.0,210.0,34.0,30.0,22.0,3.0,0.0,,348.0,
W253549086131401,290,Bihar,Patna,Maner,Simri,25.61,84.91,8.0,481.0,0.0,128.0,64.0,22.0,21.0,0.0,190.0,22.0,33.0,18.0,1.0,0.0,,313.0,
W252648084512101,291,Bihar,Patna,Bikram,Bikram,25.45,84.86,8.0,307.0,0.0,79.0,25.0,36.0,16.0,0.0,120.0,36.0,7.0,11.0,1.0,0.0,,200.0,
W253604085093901,292,Bihar,Patna,Patna rural,Kankarbagh,25.6,85.16,8.0,694.0,0.0,165.0,121.0,23.0,4.0,0.0,285.0,42.0,44.0,24.0,3.0,1.0,,451.0,
W253600085110601,293,Bihar,Patna,Patna rural,Kumhrar,25.6,85.19,8.0,364.0,0.0,140.0,32.0,17.0,2.0,0.0,140.0,34.0,13.0,15.0,3.0,0.0,,237.0,
W253709085085401,294,Bihar,Patna,Patna rural,Gandhi maidan,25.62,85.15,8.0,308.0,0.0,153.0,11.0,5.0,1.0,0.0,115.0,34.0,15.0,15.0,2.0,0.0,,200.0,
W253710085063801,295,Bihar,Patna,Patna rural,A N College,25.62,85.11,8.0,295.0,0.0,134.0,18.0,9.0,1.0,0.0,110.0,22.0,13.0,14.0,1.0,0.0,,192.0,
W253011084574001,296,Bihar,Patna,Naubatpur,Naubatpur,25.5,84.96,8.0,336.0,0.0,134.0,25.0,14.0,1.0,0.0,130.0,32.0,12.0,14.0,4.0,0.0,,218.0,
W231923083211101,297,Bihar,Patna,Patna Sadar,Kurji,25.64,85.11,8.0,374.0,0.0,165.0,14.0,19.0,2.0,0.0,145.0,28.0,18.0,15.0,2.0,1.0,,243.0,
W251739084421001,298,Bihar,Arwal,Arwal,Dirpal Bigha,25.29,84.7,8.0,261.0,0.0,92.0,11.0,25.0,12.0,0.0,110.0,32.0,7.0,8.0,1.0,0.0,,170.0,
W250854084422501,299,Bihar,Arwal,Karpi,Bairbigha,25.15,84.71,8.0,1184.0,0.0,348.0,142.0,61.0,39.0,0.0,260.0,24.0,49.0,142.0,12.0,0.0,,770.0,
W251230084460001,300,Bihar,Arwal,Arwal,Imamganj,25.21,84.77,8.0,684.0,0.0,159.0,114.0,21.0,25.0,0.0,280.0,30.0,50.0,25.0,1.0,1.0,,445.0,
W251200084531501,301,Bihar,Arwal,Ratni Faridpur,Jhunathi,25.2,84.89,8.0,411.0,0.0,165.0,28.0,25.0,3.0,0.0,160.0,54.0,6.0,17.0,2.0,0.0,,267.0,
W250745084491501,302,Bihar,Arwal,Kurtha,Kurtha bdo,25.13,84.82,8.0,836.0,0.0,281.0,110.0,20.0,6.0,0.0,345.0,60.0,47.0,26.0,5.0,0.0,,543.0,
W251345085061501,303,Bihar,Jehanabad,Modanganj,Kako,25.23,85.1,8.0,1579.0,0.0,598.0,131.0,72.0,42.0,0.0,420.0,58.0,67.0,127.0,65.0,1.0,,1026.0,
W250945085063001,304,Bihar,Jehanabad,Ghoshi,Ghoshi,25.16,85.11,8.0,532.0,0.0,195.0,39.0,22.0,22.0,0.0,225.0,50.0,24.0,16.0,1.0,1.0,,346.0,
W250509085085201,305,Bihar,Jehanabad,Hulasgunj,Hulasganj,25.09,85.15,8.0,787.0,0.0,220.0,110.0,36.0,22.0,0.0,290.0,38.0,47.0,41.0,2.0,0.0,,512.0,
W250400085004801,306,Bihar,Jehanabad,Makhdumpur,Alubikha,25.07,85.01,8.0,833.0,0.0,293.0,99.0,16.0,12.0,1.0,300.0,40.0,49.0,49.0,3.0,1.0,,541.0,
W251232084591101,307,Bihar,Jehanabad,Jehanabad,Gaurakhini,25.21,84.99,8.0,1049.0,0.0,305.0,131.0,72.0,13.0,0.0,375.0,20.0,79.0,63.0,3.0,0.0,,682.0,
W245505084460401,308,Bihar,Gaya,Konch,Konch,24.92,84.77,8.1,381.0,0.0,153.0,25.0,12.0,19.0,0.0,150.0,46.0,9.0,15.0,2.0,0.0,,248.0,
W245645084510001,309,Bihar,Gaya,Tekari,Tekari,24.95,84.85,8.0,946.0,0.0,153.0,181.0,36.0,54.0,0.0,355.0,60.0,50.0,48.0,7.0,0.0,,615.0,
W244600084223001,310,Bihar,Aurangabad,Aurangabad,Aurangabad,24.77,84.38,8.0,1388.0,0.0,336.0,231.0,30.0,59.0,0.0,495.0,54.0,87.0,75.0,13.0,0.0,,902.0,
W250130084253001,311,Bihar,Aurangabad,Daudnagar,Daudnagar,25.03,84.43,8.0,1133.0,0.0,281.0,202.0,22.0,31.0,0.0,425.0,30.0,85.0,51.0,18.0,0.0,,736.0,
W245415084233001,312,Bihar,Aurangabad,Obra,Obra,24.9,84.39,8.0,360.0,0.0,73.0,43.0,22.0,39.0,0.0,135.0,38.0,10.0,15.0,1.0,0.0,,234.0,
W245330084143001,313,Bihar,Aurangabad,Barun,Barun,24.89,84.24,8.1,511.0,0.0,140.0,39.0,49.0,28.0,0.0,210.0,26.0,35.0,19.0,2.0,0.0,,332.0,
W244030084271501,314,Bihar,Aurangabad,Deo,Deo1,24.68,84.45,8.0,1013.0,0.0,397.0,60.0,55.0,37.0,0.0,355.0,24.0,72.0,62.0,10.0,1.0,,658.0,
W245902084385001,315,Bihar,Aurangabad,Goh,Dhobi Tola_Goh,24.98,84.65,8.0,544.0,0.0,226.0,28.0,13.0,31.0,0.0,180.0,26.0,28.0,36.0,2.0,2.0,,354.0,
W245148084383101,316,Bihar,Aurangabad,Rafiganj,Tineri Morh,24.86,84.64,8.0,947.0,0.0,268.0,135.0,42.0,19.0,0.0,270.0,26.0,50.0,85.0,10.0,1.0,,616.0,
W252600085184501,317,Bihar,Patna,Daniyawan,Daniyawan,25.43,85.31,7.0,480.0,0.0,189.0,46.0,14.0,1.0,0.0,160.0,26.0,23.0,35.0,1.0,0.0,16.0,312.0,
W250242085155601,318,Bihar,Nalanda,Neemchak,Ankuri Bazar,25.05,85.27,8.0,606.0,0.0,275.0,46.0,6.0,4.0,0.0,210.0,16.0,41.0,38.0,1.0,1.0,15.0,394.0,
W250621085250601,319,Bihar,Nalanda,Silao,Bhui,25.11,85.42,8.0,2670.0,0.0,695.0,348.0,233.0,29.0,0.0,890.0,14.0,208.0,168.0,41.0,0.0,15.0,1736.0,
W213709082023301,320,Bihar,Nalanda,Chandi,Chandi,25.32,85.49,7.0,720.0,0.0,372.0,18.0,14.0,2.0,0.0,205.0,12.0,43.0,67.0,3.0,1.0,17.0,468.0,
W251234085275301,321,Bihar,Nalanda,Noorsarai,Daudpur,25.21,85.46,8.0,615.0,0.0,299.0,28.0,9.0,14.0,0.0,215.0,12.0,45.0,38.0,4.0,0.0,16.0,400.0,
W251354085492501,322,Bihar,Nalanda,Rahui,Doiya,25.23,85.5,8.0,638.0,0.0,262.0,36.0,45.0,4.0,0.0,140.0,18.0,23.0,76.0,4.0,0.0,15.0,415.0,
W250130085314501,323,Bihar,Nalanda,Giriak,Giriak,25.03,85.53,8.0,760.0,0.0,372.0,25.0,22.0,20.0,0.0,285.0,20.0,57.0,38.0,4.0,0.0,19.0,494.0,
W251815085171501,324,Bihar,Nalanda,Hilsa,Hilsa,25.3,85.29,8.0,847.0,0.0,372.0,64.0,15.0,6.0,0.0,305.0,16.0,64.0,50.0,7.0,0.0,13.0,551.0,
W174644077010201,325,Bihar,Nalanda,Islampur,Islampur,25.14,85.21,8.0,599.0,0.0,317.0,18.0,10.0,2.0,0.0,160.0,18.0,28.0,58.0,5.0,0.0,1.0,389.0,
W251144085412801,326,Bihar,Nalanda,Asthawan,Jangipur,25.2,85.69,8.0,472.0,0.0,183.0,36.0,17.0,21.0,0.0,160.0,20.0,27.0,31.0,2.0,0.0,12.0,307.0,
W252207085160201,327,Bihar,Nalanda,Hilsa,Karaiparsurai,25.37,85.27,8.0,494.0,0.0,226.0,28.0,17.0,1.0,0.0,165.0,12.0,33.0,32.0,3.0,0.0,16.0,321.0,
W250922085264901,328,Bihar,Nalanda,Silao,Kundalpur,25.16,85.45,8.0,926.0,0.0,482.0,21.0,20.0,8.0,0.0,140.0,20.0,22.0,140.0,11.0,1.0,17.0,602.0,
W251135085293804,329,Bihar,Nalanda,Bihar Sharif,Maghra,25.19,85.49,8.0,1267.0,0.0,415.0,131.0,81.0,29.0,0.0,350.0,16.0,75.0,99.0,48.0,0.0,13.0,824.0,
W251211085330801,330,Bihar,Nalanda,Bihar Sharif,Muraura,25.2,85.55,8.0,1359.0,0.0,537.0,107.0,54.0,27.0,0.0,335.0,20.0,69.0,135.0,36.0,0.0,14.0,883.0,
W250808085264401,331,Bihar,Nalanda,Rajgir,Nalanda,25.14,85.45,8.0,1223.0,0.0,482.0,60.0,109.0,21.0,0.0,285.0,14.0,61.0,140.0,12.0,1.0,14.0,795.0,
W251205085210801,332,Bihar,Nalanda,Ekangarsarai,Parwalpur 1,25.2,85.35,8.0,1577.0,0.0,537.0,181.0,63.0,29.0,0.0,395.0,50.0,66.0,150.0,41.0,1.0,13.0,1025.0,
W250600085330001,333,Bihar,Nalanda,Giriak,Pawapuri,25.1,85.55,8.0,741.0,0.0,342.0,53.0,10.0,5.0,0.0,210.0,20.0,39.0,67.0,6.0,1.0,13.0,482.0,
W250120085231501,334,Bihar,Nalanda,Rajgir,Pilkhi,25.02,85.39,8.0,1112.0,0.0,464.0,92.0,35.0,3.0,0.0,285.0,44.0,43.0,109.0,14.0,0.0,13.0,723.0,
W250115085241501,335,Bihar,Nalanda,Rajgir,Rajgir,25.02,85.4,8.0,825.0,0.0,305.0,78.0,25.0,30.0,0.0,315.0,20.0,64.0,37.0,10.0,0.0,18.0,536.0,
W251024085303301,336,Bihar,Nalanda,Bihar Sharif,Ranabigha,25.17,85.51,7.0,1639.0,0.0,415.0,213.0,136.0,41.0,0.0,440.0,14.0,98.0,150.0,32.0,0.0,14.0,1065.0,
W251234085410401,337,Bihar,Nalanda,Asthawan,Sare,25.21,85.68,8.0,777.0,0.0,323.0,43.0,49.0,5.0,0.0,295.0,44.0,45.0,39.0,4.0,0.0,14.0,505.0,
W251435085483601,338,Bihar,Nalanda,Sarmera,Sarmera,25.25,85.79,8.0,486.0,0.0,250.0,18.0,10.0,1.0,0.0,180.0,16.0,34.0,25.0,3.0,0.0,18.0,316.0,
W250913085150701,339,Bihar,Nalanda,Islampur,Sherpur,25.15,85.25,8.0,552.0,0.0,293.0,21.0,4.0,1.0,0.0,190.0,8.0,41.0,37.0,2.0,1.0,16.0,359.0,
W250430085270401,340,Bihar,Nalanda,Silao,Silao,25.08,85.45,8.0,2420.0,0.0,592.0,351.0,165.0,29.0,0.0,645.0,42.0,131.0,224.0,42.0,0.0,16.0,1573.0,
W251928085320301,341,Bihar,Nalanda,Rahui,Vena,25.32,85.53,8.0,607.0,0.0,287.0,32.0,20.0,1.0,0.0,165.0,18.0,29.0,60.0,4.0,0.0,15.0,395.0,
W250324086453801,342,Bihar,Nawada,Nawada,Mirjapur,24.89,85.54,8.0,440.0,0.0,250.0,14.0,6.0,10.0,0.0,175.0,18.0,32.0,22.0,2.0,0.0,14.0,286.0,
W245434085321101,343,Bihar,Nawada,Nawada,Gonama,24.91,85.54,7.0,620.0,0.0,250.0,57.0,11.0,14.0,0.0,225.0,18.0,44.0,35.0,2.0,0.0,16.0,403.0,
W244945085401501,344,Bihar,Nawada,Hisua,Hisua,24.83,85.67,8.0,542.0,0.0,256.0,32.0,12.0,13.0,0.0,190.0,26.0,30.0,33.0,2.0,0.0,15.0,352.0,
W245046085530101,345,Bihar,Nawada,Kawakol,Kawakol ashram,24.85,85.88,8.0,252.0,0.0,98.0,25.0,11.0,0.0,0.0,80.0,18.0,9.0,16.0,0.0,1.0,10.0,164.0,
W244403085251001,346,Bihar,Nawada,Narhat,Khanwa,24.73,85.42,8.0,453.0,0.0,189.0,36.0,17.0,10.0,0.0,165.0,22.0,27.0,22.0,1.0,1.0,15.0,294.0,
W244403085210401,347,Bihar,Nawada,Meskaur,Meskaur,24.73,85.35,8.0,804.0,0.0,409.0,39.0,12.0,0.0,0.0,330.0,26.0,64.0,24.0,13.0,0.0,26.0,523.0,
W243901085250601,348,Bihar,Nawada,Sirdala,Nawabganj,24.65,85.42,8.0,680.0,0.0,378.0,18.0,8.0,0.0,0.0,195.0,8.0,43.0,62.0,3.0,1.0,15.0,442.0,
W245230085410001,349,Bihar,Nawada,Pakribarwan,Roh,24.88,85.68,8.0,419.0,0.0,220.0,28.0,4.0,6.0,0.0,195.0,36.0,26.0,12.0,2.0,0.0,16.0,272.0,
W245100085453001,350,Bihar,Nawada,Kauakol,Rupau,24.85,85.76,8.0,1980.0,0.0,653.0,227.0,113.0,32.0,0.0,510.0,80.0,75.0,197.0,30.0,0.0,17.0,1287.0,
W250129085342501,351,Bihar,Nawada,Warshaliganj,Shahpur Morh,25.02,85.57,8.0,490.0,0.0,256.0,18.0,6.0,0.0,0.0,140.0,18.0,23.0,43.0,2.0,0.0,15.0,319.0,
W244845085340001,352,Bihar,Nawada,Hisua,Tungi,24.81,85.57,8.0,580.0,0.0,250.0,39.0,19.0,13.0,0.0,195.0,32.0,28.0,36.0,4.0,0.0,22.0,377.0,
W250145085384501,353,Bihar,Nawada,Warshaliganj,Warshaliganj,25.03,85.65,8.0,439.0,0.0,214.0,21.0,6.0,8.0,0.0,165.0,28.0,23.0,25.0,2.0,0.0,17.0,285.0,
W250824085415801,354,Bihar,Seikhpura,Barbigha,Ambari,25.14,85.7,8.0,2500.0,0.0,732.0,312.0,178.0,31.0,0.0,725.0,50.0,146.0,239.0,3.0,1.0,13.0,1625.0,
W251301085441601,355,Bihar,Seikhpura,Barbigha,Barbigha,25.22,85.74,8.0,1030.0,0.0,311.0,110.0,83.0,23.0,0.0,320.0,20.0,66.0,77.0,14.0,0.0,15.0,670.0,
W261730085561501,356,Bihar,Seikhpura,Barbigha,Keoti,25.22,85.8,8.0,683.0,0.0,189.0,82.0,66.0,9.0,0.0,260.0,26.0,47.0,35.0,3.0,0.0,15.0,444.0,
W251302085443801,357,Bihar,Seikhpura,Barbigha,Koeri Bigha,25.22,85.74,8.0,870.0,0.0,287.0,78.0,49.0,27.0,0.0,255.0,18.0,51.0,60.0,31.0,0.0,15.0,566.0,
W251013085473301,358,Bihar,Seikhpura,Seikhpura,Nemdarganj,25.17,85.79,8.0,743.0,0.0,360.0,46.0,18.0,0.0,0.0,245.0,36.0,38.0,55.0,4.0,1.0,13.0,483.0,
W250256085513401,359,Bihar,Seikhpura,Ariari,Ariari,25.05,85.86,8.0,1800.0,0.0,604.0,206.0,101.0,9.0,0.0,555.0,48.0,106.0,156.0,6.0,1.0,13.0,1170.0,
W244608085000301,360,Bihar,Gaya,Gaya sadar,Chand Chowra Chowk,24.77,85.0,7.0,1060.0,0.0,281.0,128.0,72.0,32.0,0.0,305.0,26.0,58.0,81.0,17.0,1.0,21.0,689.0,
W240547086594601,361,Bihar,Gaya,Fatehpur,Fatehpur,24.64,85.23,8.0,480.0,0.0,122.0,53.0,42.0,29.0,0.0,145.0,22.0,22.0,37.0,1.0,0.0,18.0,312.0,
W202230080440001,362,Bihar,Gaya,Manpur,Manpur,24.79,85.03,8.0,1140.0,0.0,354.0,135.0,56.0,31.0,0.0,395.0,12.0,89.0,56.0,26.0,0.0,15.0,741.0,
W244842085005601,363,Bihar,Gaya,Gaya sadar,Ram kund,24.81,85.02,7.0,1204.0,0.0,293.0,167.0,96.0,33.0,0.0,405.0,26.0,83.0,79.0,15.0,1.0,18.0,783.0,
W244657084595901,364,Bihar,Gaya,Gaya sadar,Sangat gali,24.78,85.0,7.0,810.0,0.0,268.0,92.0,38.0,28.0,0.0,295.0,26.0,56.0,51.0,1.0,1.0,18.0,527.0,
W244815085131501,365,Bihar,Gaya,,Wazirganj,24.8,85.22,8.0,590.0,0.0,275.0,36.0,15.0,5.0,0.0,185.0,24.0,30.0,38.0,11.0,0.0,15.0,384.0,
W254005084413401,366,Bihar,Bhojpur,Barhara,Bakhorapur,25.67,84.69,7.0,363.0,0.0,134.0,25.0,15.0,19.0,1.0,150.0,30.0,18.0,9.0,3.0,1.0,7.0,236.0,
W252925084332301,367,Bihar,Bhojpur,Barhara,Balua,25.65,84.56,7.0,440.0,0.0,195.0,14.0,22.0,9.0,0.0,180.0,38.0,21.0,15.0,3.0,1.0,6.0,286.0,
W254058084434301,368,Bihar,Bhojpur,Barhara,Barahara,25.68,84.73,7.0,712.0,0.0,183.0,60.0,82.0,41.0,0.0,255.0,64.0,23.0,39.0,5.0,0.0,6.0,463.0,
W253612084432901,369,Bihar,Bhojpur,Koilwar,Birampur,25.6,84.72,7.0,954.0,0.0,348.0,75.0,65.0,8.0,0.0,345.0,42.0,58.0,51.0,14.0,0.0,9.0,620.0,
W253345084361501,370,Bihar,Bhojpur,Arrah,Chandawa,25.56,84.6,7.0,634.0,0.0,299.0,25.0,19.0,16.0,0.0,205.0,58.0,15.0,46.0,2.0,0.0,11.0,412.0,
W254017084462501,371,Bihar,Bhojpur,Barhara,Dhusaria,25.67,84.77,7.0,1448.0,0.0,451.0,160.0,87.0,40.0,0.0,360.0,42.0,62.0,136.0,45.0,0.0,9.0,941.0,
W254111084442001,372,Bihar,Bhojpur,Barhara,Ekauna,25.69,84.74,8.0,434.0,0.0,189.0,14.0,22.0,18.0,1.0,165.0,26.0,24.0,17.0,6.0,0.0,8.0,282.0,
W254054084391601,373,Bihar,Bhojpur,Barhara,Farhda,25.68,84.65,8.0,281.0,0.0,122.0,11.0,12.0,4.0,0.0,105.0,26.0,10.0,13.0,1.0,0.0,7.0,183.0,
W253513084444901,374,Bihar,Bhojpur,Koilwar,Giddha,25.59,84.75,8.0,1213.0,0.0,329.0,178.0,41.0,42.0,1.0,350.0,54.0,52.0,101.0,17.0,0.0,9.0,788.0,
W251536084355001,375,Bihar,Bhojpur,Sahar,Guljarpur,25.26,84.6,8.0,617.0,0.0,275.0,18.0,28.0,21.0,1.0,250.0,34.0,40.0,24.0,1.0,1.0,11.0,401.0,
W253421084342101,376,Bihar,Bhojpur,Udwantnagar,Harnath Kundi,25.57,84.57,7.0,1240.0,0.0,470.0,117.0,41.0,23.0,1.0,420.0,24.0,87.0,68.0,40.0,0.0,10.0,806.0,
W254029084355301,377,Bihar,Bhojpur,Barhara,Jagatpur,25.67,84.6,8.0,536.0,0.0,238.0,28.0,22.0,6.0,1.0,205.0,22.0,36.0,25.0,1.0,1.0,10.0,348.0,
W253609084320201,378,Bihar,Bhojpur,Ara,Jarawarpur Milki,25.6,84.53,8.0,634.0,0.0,262.0,50.0,21.0,10.0,0.0,210.0,26.0,35.0,44.0,3.0,0.0,12.0,412.0,
W254002084214001,379,Bihar,Bhojpur,Shahpur,Karnempur,25.67,84.36,7.0,1673.0,0.0,531.0,220.0,51.0,41.0,1.0,500.0,34.0,101.0,126.0,44.0,0.0,8.0,1087.0,
W252841084363101,380,Bihar,Bhojpur,Udwantnagar,Kasap,25.48,84.61,7.0,1643.0,0.0,519.0,199.0,79.0,35.0,1.0,495.0,40.0,96.0,119.0,42.0,1.0,9.0,1068.0,
W252336084413601,381,Bihar,Bhojpur,Sandesh,Kori,25.39,84.69,7.0,976.0,0.0,281.0,107.0,68.0,41.0,1.0,340.0,40.0,58.0,60.0,10.0,0.0,11.0,634.0,
W253445084450001,382,Bihar,Bhojpur,Koilwar,Kulharia,25.58,84.75,8.0,572.0,0.0,128.0,75.0,68.0,4.0,1.0,200.0,38.0,26.0,35.0,2.0,0.0,11.0,372.0,
W253038084440601,383,Bihar,Bhojpur,Koilwar,Lodhipur,25.51,84.74,7.0,1443.0,0.0,372.0,192.0,98.0,41.0,1.0,470.0,104.0,51.0,98.0,26.0,0.0,11.0,938.0,
W253613084450001,384,Bihar,Bhojpur,Koilwar,Mokhlisa,25.6,84.75,8.0,608.0,0.0,232.0,18.0,52.0,30.0,0.0,235.0,26.0,41.0,25.0,7.0,0.0,12.0,395.0,
W252706084450101,385,Bihar,Bhojpur,Sandesh,Nasratpur,25.45,84.75,7.0,1190.0,0.0,384.0,124.0,64.0,41.0,1.0,370.0,48.0,61.0,78.0,35.0,0.0,15.0,774.0,
W253832084471501,386,Bihar,Bhojpur,Koilwar,Pachrukhiya,25.64,84.79,7.0,1142.0,0.0,397.0,96.0,67.0,42.0,0.0,355.0,48.0,57.0,80.0,30.0,0.0,9.0,742.0,
W252423084374301,387,Bihar,Bhojpur,Sandesh,Pauna,25.41,84.63,7.0,1428.0,0.0,470.0,156.0,71.0,40.0,0.0,470.0,34.0,94.0,84.0,42.0,1.0,10.0,928.0,
W252000084251501,388,Bihar,Bhojpur,Pirro,Pirro,25.33,84.42,7.0,1453.0,0.0,445.0,185.0,59.0,39.0,1.0,435.0,28.0,89.0,110.0,39.0,1.0,11.0,944.0,
W252421084441701,389,Bihar,Bhojpur,Sandesh,Sandesh,25.41,84.74,7.0,1519.0,0.0,500.0,163.0,81.0,34.0,0.0,475.0,66.0,75.0,109.0,35.0,0.0,14.0,987.0,
W253411084313101,390,Bihar,Bhojpur,Udwantnagar,Sasaram Chota,25.57,84.53,7.0,1087.0,0.0,451.0,64.0,43.0,35.0,0.0,295.0,24.0,57.0,90.0,38.0,0.0,9.0,707.0,
W232822080212701,391,Bihar,Bhojpur,Barhara,Simariya,25.67,84.72,7.0,1310.0,0.0,470.0,131.0,61.0,7.0,0.0,480.0,44.0,90.0,65.0,20.0,0.0,8.0,852.0,
W253636084452401,392,Bihar,Bhojpur,Koilwar,Songhata,25.61,84.76,7.0,666.0,0.0,336.0,25.0,13.0,7.0,0.0,260.0,26.0,47.0,28.0,2.0,0.0,9.0,433.0,
W253004084173401,393,Bihar,Buxar,Barhampur,Bagen Bazar,25.5,84.29,8.0,337.0,0.0,159.0,14.0,8.0,8.0,1.0,120.0,14.0,21.0,18.0,2.0,1.0,14.0,219.0,
W254105084074601,394,Bihar,Buxar,Simri,Barka Rajpur,25.68,84.13,7.0,1304.0,0.0,543.0,103.0,22.0,38.0,1.0,425.0,32.0,84.0,99.0,9.0,0.0,9.0,848.0,
W253000083543001,395,Bihar,Buxar,Chausa,Chausa,25.5,83.91,7.0,2380.0,0.0,933.0,188.0,89.0,61.0,1.0,625.0,48.0,123.0,199.0,98.0,0.0,12.0,1547.0,
W253248083555501,396,Bihar,Buxar,Buxar,Danikutia,25.55,83.93,7.0,870.0,0.0,439.0,28.0,23.0,8.0,1.0,235.0,12.0,50.0,84.0,11.0,1.0,10.0,566.0,
W253654084032101,397,Bihar,Buxar,Buxar,Dudharchak,25.62,84.06,7.0,579.0,0.0,305.0,14.0,11.0,2.0,1.0,245.0,20.0,47.0,15.0,3.0,0.0,12.0,376.0,
W253315084091501,398,Bihar,Buxar,Dumraon,Dumraon,25.55,84.15,7.0,855.0,0.0,268.0,75.0,56.0,43.0,1.0,290.0,24.0,56.0,56.0,10.0,1.0,15.0,556.0,
W242837086114401,399,Bihar,Buxar,Simri,Dumri,25.63,84.18,7.0,758.0,0.0,397.0,28.0,8.0,3.0,1.0,320.0,28.0,61.0,21.0,5.0,0.0,11.0,493.0,
W253634084102501,400,Bihar,Buxar,Simri,Durasan,25.6,84.17,7.0,1130.0,0.0,317.0,128.0,84.0,37.0,0.0,340.0,22.0,69.0,78.0,33.0,0.0,13.0,735.0,
W253754084190701,401,Bihar,Buxar,Barhampur,Hathilpur,25.63,84.32,8.0,467.0,0.0,220.0,14.0,12.0,17.0,0.0,200.0,36.0,27.0,12.0,3.0,0.0,10.0,304.0,
W253535084151901,402,Bihar,Buxar,Buxar,Jugia Dera,25.59,84.26,8.0,424.0,0.0,189.0,14.0,16.0,10.0,1.0,150.0,24.0,22.0,26.0,2.0,1.0,12.0,276.0,
W253904084110301,403,Bihar,Buxar,Simri,Karathar,25.65,84.18,7.0,625.0,0.0,305.0,28.0,16.0,2.0,1.0,275.0,36.0,45.0,12.0,3.0,0.0,16.0,406.0,
W253123084162501,404,Bihar,Buxar,Barhampur,Khochariwan,25.52,84.27,7.0,505.0,0.0,238.0,21.0,14.0,4.0,0.0,220.0,26.0,38.0,13.0,1.0,1.0,15.0,328.0,
W253255083563001,405,Bihar,Buxar,Buxar,Kritpur,25.55,83.94,7.0,645.0,0.0,317.0,25.0,16.0,12.0,0.0,275.0,22.0,53.0,17.0,3.0,0.0,16.0,419.0,
W230530080300001,406,Bihar,Buxar,Simri,Manikpur,25.67,84.09,7.0,695.0,0.0,372.0,18.0,9.0,3.0,0.0,295.0,38.0,49.0,20.0,4.0,1.0,11.0,452.0,
W253633084203301,407,Bihar,Buxar,Barhampur,Mharajgunj,25.61,84.34,7.0,739.0,0.0,311.0,28.0,26.0,52.0,0.0,260.0,22.0,50.0,41.0,9.0,1.0,11.0,480.0,
W254045084083001,408,Bihar,Buxar,Simri,Neazipur,25.68,84.14,7.0,779.0,0.0,403.0,21.0,7.0,22.0,0.0,295.0,24.0,57.0,36.0,6.0,0.0,8.0,506.0,
W202035085471001,409,Bihar,Buxar,Barhampur,Raghunathpur,25.56,84.31,8.0,929.0,0.0,232.0,117.0,65.0,38.0,1.0,325.0,24.0,64.0,52.0,12.0,1.0,9.0,604.0,
W215611075081001,410,Bihar,Buxar,Rajpur,Rajpur,25.41,83.92,8.0,1312.0,0.0,372.0,160.0,85.0,37.0,1.0,525.0,40.0,103.0,50.0,16.0,1.0,11.0,853.0,
W253623084031201,411,Bihar,Buxar,Buxar,Ramobariya,25.61,84.05,8.0,903.0,0.0,458.0,25.0,18.0,21.0,2.0,390.0,28.0,78.0,25.0,2.0,1.0,9.0,587.0,
W253943084092701,412,Bihar,Buxar,Simri,Sohiar,25.66,84.16,7.0,1419.0,0.0,464.0,131.0,98.0,42.0,1.0,440.0,46.0,79.0,98.0,41.0,0.0,9.0,922.0,
W253315083564901,413,Bihar,Buxar,Buxar,Thodagaon,25.55,83.95,7.0,743.0,0.0,329.0,28.0,31.0,25.0,1.0,340.0,28.0,66.0,12.0,1.0,0.0,12.0,483.0,
W284645079300001,414,Bihar,Darbhanga,Baheri 1,Baheri,25.95,86.07,8.0,436.0,0.0,232.0,11.0,3.0,0.0,0.0,90.0,28.0,5.0,56.0,2.0,1.0,10.0,283.0,
W260040086051501,415,Bihar,Darbhanga,Baheri,Bithauli,26.01,86.09,8.0,392.0,0.0,207.0,14.0,2.0,0.0,0.0,100.0,26.0,9.0,44.0,2.0,0.0,9.0,255.0,
W260945085534501,416,Bihar,Darbhanga,Darbhanga,Darbhanga,26.17,85.91,8.0,371.0,0.0,189.0,18.0,4.0,0.0,0.0,65.0,24.0,1.0,56.0,1.0,0.0,8.0,241.0,
W260026085583001,417,Bihar,Darbhanga,Baheri,Jorja,26.01,85.99,8.0,567.0,0.0,305.0,18.0,2.0,0.0,0.0,200.0,42.0,23.0,37.0,2.0,1.0,9.0,369.0,
W261001085460201,418,Bihar,Darbhanga,Simri,Simri (Bithauli),26.17,85.77,8.0,428.0,0.0,244.0,7.0,4.0,0.0,0.0,120.0,28.0,12.0,41.0,2.0,1.0,8.0,278.0,
W255447085462901,419,Bihar,Samstipur,Kalyanpur,Basudebpur,25.91,85.78,8.0,582.0,0.0,287.0,14.0,36.0,0.0,0.0,250.0,48.0,32.0,19.0,3.0,1.0,10.0,378.0,
W254817085520501,420,Bihar,Samstipur,Ujiarpur,Dandia Asadpur,25.81,85.87,8.0,731.0,0.0,329.0,32.0,35.0,10.0,0.0,295.0,88.0,18.0,32.0,5.0,1.0,11.0,475.0,
W254923085445701,421,Bihar,Samstipur,Jitwarpur,Harpur Aloth,25.82,85.75,8.0,548.0,0.0,281.0,18.0,11.0,3.0,0.0,230.0,42.0,30.0,21.0,1.0,1.0,7.0,356.0,
W200307085040801,422,Bihar,Samstipur,Vibhutipur,Kalyanpur,25.71,85.91,8.0,609.0,0.0,317.0,14.0,19.0,5.0,0.0,220.0,54.0,21.0,36.0,3.0,1.0,9.0,396.0,
W211000081324501,423,Bihar,Samstipur,Tajpur Morwa,Motipur,25.85,85.68,8.0,615.0,0.0,262.0,32.0,48.0,0.0,0.0,240.0,36.0,36.0,35.0,2.0,1.0,10.0,400.0,
W242906081532502,424,Bihar,Samstipur,Vibhutipur,Patpara,25.78,85.92,8.0,687.0,0.0,281.0,28.0,62.0,0.0,0.0,255.0,34.0,41.0,42.0,3.0,1.0,10.0,447.0,
W254545086023001,425,Bihar,Samstipur,Rosera,Rosera,25.76,86.04,8.0,1093.0,0.0,329.0,110.0,110.0,0.0,0.0,445.0,46.0,80.0,42.0,7.0,1.0,6.0,710.0,
W254605085430101,426,Bihar,Samstipur,Sarai Ranjan,Sarai Ranjan,25.77,85.72,8.0,1047.0,0.0,317.0,149.0,37.0,0.0,0.0,375.0,34.0,70.0,66.0,2.0,1.0,8.0,681.0,
W262925085295901,427,Bihar,Sitamarhi,Sitamarhi,Sitamarhi,26.49,85.5,8.0,319.0,0.0,165.0,11.0,2.0,0.0,0.0,135.0,52.0,1.0,17.0,2.0,0.0,3.0,207.0,
W263545085280001,428,Bihar,Sitamarhi,Sursand,Sursand,26.6,85.47,8.0,293.0,0.0,146.0,11.0,7.0,0.0,0.0,135.0,46.0,5.0,8.0,2.0,1.0,4.0,190.0,
W083202076524701,429,Bihar,Sitamarhi,Runi saidpur,Thumba,26.43,85.5,8.0,279.0,0.0,128.0,7.0,17.0,0.0,0.0,125.0,46.0,2.0,10.0,2.0,1.0,4.0,181.0,
W252652086014001,430,Bihar,Begusarai,Barauni,Begusarai,45.45,86.03,8.0,507.0,0.0,226.0,32.0,19.0,0.0,0.0,215.0,36.0,30.0,11.0,3.0,0.0,0.0,330.0,
W252245086081501,431,Bihar,Begusarai,Begusarai,Begusarai Fc/ib,25.38,86.14,8.0,637.0,0.0,250.0,53.0,40.0,6.0,0.0,245.0,42.0,34.0,31.0,5.0,0.0,6.0,414.0,
W261053084362601,432,Bihar,Begusarai,Begusarai,Hardia,25.46,86.14,8.0,748.0,0.0,177.0,99.0,72.0,35.0,0.0,350.0,46.0,57.0,12.0,6.0,0.0,3.0,486.0,
W252620086043701,433,Bihar,Begusarai,Begusarai,Harpur,25.44,86.08,8.0,791.0,0.0,128.0,92.0,115.0,39.0,0.0,295.0,40.0,47.0,31.0,9.0,0.0,1.0,514.0,
W253345086084501,434,Bihar,Begusarai,Cheria Bariarpur,Manjaul,25.56,86.15,8.0,1151.0,0.0,214.0,170.0,100.0,58.0,0.0,410.0,40.0,75.0,69.0,3.0,0.0,2.0,748.0,
W252845085564501,435,Bihar,Begusarai,Teghra,Teghra,25.48,85.95,8.0,755.0,0.0,232.0,67.0,72.0,4.0,0.0,325.0,24.0,64.0,19.0,5.0,0.0,3.0,491.0,
W261631085064401,436,Bihar,Muzaffarpur,Mushhari,Bhagwanpur chowk,26.28,85.11,8.0,1077.0,0.0,256.0,110.0,147.0,6.0,1.0,370.0,36.0,68.0,57.0,20.0,1.0,8.0,700.0,
W260945085270001,437,Bihar,Muzaffarpur,Bochaha,Bochaha,26.16,85.45,8.0,1190.0,0.0,299.0,131.0,115.0,57.0,0.0,420.0,34.0,81.0,72.0,5.0,0.0,3.0,774.0,
W260837085232601,438,Bihar,Muzaffarpur,Mushari,Japaha,26.14,85.39,8.0,1287.0,0.0,342.0,163.0,75.0,45.0,0.0,305.0,24.0,60.0,29.0,32.0,0.0,6.0,837.0,
W114909093023001,439,Bihar,Muzaffarpur,Gaighat,Ramnagar,26.26,85.62,8.0,480.0,0.0,220.0,36.0,4.0,0.0,0.0,205.0,20.0,38.0,17.0,4.0,0.0,3.0,312.0,
W304230076440101,440,Chandigarh,Chandigarh,Chandigarh,Maloya,30.754,76.719,8.0,582.0,0.0,293.0,56.0,0.0,1.0,0.0,170.0,36.0,19.0,69.0,1.0,0.0,20.0,,
W304230076474001,441,Chandigarh,Chandigarh,Chandigarh,Burail,30.71,76.76,9.0,440.0,24.0,122.0,21.0,28.0,25.0,0.0,140.0,32.0,15.0,30.0,14.0,0.3,18.0,,
W204100081243001,442,Chhattisgarh,Durg,Gurur,Gurur,20.68,81.41,7.0,763.0,0.0,268.0,92.0,29.0,21.0,0.0,360.0,76.0,41.0,17.0,2.0,1.0,6.0,,0.0
W204039081263001,443,Chhattisgarh,Durg,Gurur,kuliya,20.68,81.44,7.0,395.0,0.0,146.0,35.0,32.0,14.0,0.0,160.0,40.0,14.0,15.0,9.0,0.0,4.0,,0.0
W203720081263301,444,Chhattisgarh,Durg,Gurur,Jagtara,20.62,81.44,7.0,389.0,0.0,207.0,14.0,9.0,2.0,0.0,170.0,52.0,10.0,12.0,2.0,1.0,5.0,,0.0
W203407081225201,445,Chhattisgarh,Durg,Gurur,Markatola,20.57,81.38,8.0,461.0,0.0,256.0,14.0,12.0,0.0,0.0,160.0,32.0,19.0,37.0,3.0,1.0,4.0,,0.0
W202709081233401,446,Chhattisgarh,Kanker,Charama,Ratesara,20.46,81.4,7.0,293.0,0.0,122.0,14.0,40.0,0.0,0.0,100.0,24.0,10.0,27.0,1.0,1.0,13.0,,0.0
W203148081220404,447,Chhattisgarh,Kanker,Charama,Machandur,20.53,81.37,8.0,1232.0,0.0,415.0,135.0,61.0,59.0,0.0,520.0,124.0,50.0,47.0,12.0,0.0,13.0,,0.0
W194624081543002,448,Chhattisgarh,Kanker,Makdi,Makdi,19.77,81.91,8.0,510.0,0.0,244.0,28.0,23.0,8.0,0.0,210.0,60.0,14.0,28.0,1.0,1.0,14.0,,0.0
W182720076052901,449,Chhattisgarh,Kanker,Kanker,Govindpur,20.28,81.48,8.0,1189.0,0.0,403.0,177.0,39.0,22.0,0.0,360.0,96.0,29.0,107.0,2.0,2.0,13.0,,0.0
W201658081384101,450,Chhattisgarh,Kanker,Sarana (Narharpur),Murpar,20.28,81.64,7.0,410.0,0.0,195.0,35.0,11.0,6.0,0.0,150.0,52.0,5.0,28.0,1.0,1.0,21.0,,0.0
W195130081381501,451,Chhattisgarh,Bastar,Baderajpur,Pharasgaon,19.86,81.64,7.0,265.0,0.0,122.0,64.0,0.0,19.0,0.0,110.0,24.0,12.0,15.0,2.0,0.0,29.0,,0.0
W193435081400101,452,Chhattisgarh,Bastar,Kondagaon,Massaukokada,19.92,81.62,8.0,263.0,0.0,116.0,21.0,0.0,32.0,0.0,90.0,28.0,5.0,22.0,1.0,0.0,23.0,,0.0
W194839081383801,453,Chhattisgarh,Bastar,Kondagaon,Borgaon,19.82,81.64,7.0,400.0,0.0,98.0,71.0,10.0,32.0,0.0,160.0,48.0,10.0,23.0,1.0,0.0,16.0,,0.0
W194654081393904,454,Chhattisgarh,Kondagaon,Pharasgaon,Kulhadhgaon,19.78,81.66,7.0,261.0,0.0,146.0,14.0,0.0,0.0,0.0,110.0,32.0,7.0,14.0,2.0,0.0,14.0,,0.0
W194315081391502,455,Chhattisgarh,Bastar,Pharasgaon,Lanjora,19.72,81.65,7.0,1385.0,0.0,390.0,255.0,20.0,0.0,0.0,620.0,20.0,65.0,39.0,1.0,0.0,25.0,,0.0
W194025081403501,456,Chhattisgarh,Bastar,Pharasgaon,Jaitpuri,19.68,81.66,7.0,285.0,0.0,134.0,28.0,10.0,15.0,0.0,110.0,36.0,5.0,18.0,3.0,0.0,18.0,,0.0
W193500081400001,457,Chhattisgarh,Kondagaon,Kondagaon,Kondagaon,19.6,81.67,8.0,562.0,0.0,195.0,64.0,5.0,39.0,0.0,200.0,56.0,14.0,28.0,2.0,0.0,16.0,,0.0
W193436081395404,458,Chhattisgarh,Bastar,Kondagaon,Chikalphuti,19.58,81.67,8.0,340.0,0.0,183.0,21.0,0.0,11.0,0.0,150.0,32.0,17.0,16.0,2.0,0.0,14.0,,0.0
W192810081432001,459,Chhattisgarh,Bastar,Kondagaon,Dahikonga,19.47,81.72,7.0,279.0,0.0,134.0,28.0,0.0,14.0,0.0,115.0,32.0,8.0,12.0,1.0,0.0,13.0,,0.0
W192743081451301,460,Chhattisgarh,Bastar,Kondagaon,Surkupal,19.59,81.72,8.0,262.0,0.0,134.0,21.0,0.0,3.0,0.0,110.0,24.0,12.0,16.0,0.0,2.0,14.0,,0.0
W192610081452001,461,Chhattisgarh,Bastar,Kondagaon,Joba,19.44,81.76,8.0,260.0,0.0,134.0,14.0,0.0,3.0,0.0,100.0,28.0,7.0,17.0,0.0,2.0,4.0,,0.0
W191950081495501,462,Chhattisgarh,Bastar,Bastar,Bhanpuri,19.33,81.83,8.0,302.0,0.0,122.0,14.0,0.0,6.0,0.0,140.0,40.0,10.0,4.0,1.0,1.0,5.0,,0.0
W191210081431001,463,Chhattisgarh,Bastar,Londigura,Chitrakot,19.2,81.72,8.0,376.0,0.0,232.0,7.0,0.0,0.0,0.0,170.0,48.0,12.0,12.0,4.0,0.0,5.0,,0.0
W191020081451701,464,Chhattisgarh,Bastar,lourdigadh,Usri bera,19.17,81.75,7.0,422.0,0.0,244.0,14.0,0.0,8.0,0.0,215.0,68.0,11.0,4.0,1.0,0.0,6.0,,0.0
W195035081522701,465,Chhattisgarh,Bastar,Jagdalpur,Dewargaon,19.12,81.9,8.0,298.0,0.0,146.0,14.0,0.0,11.0,0.0,140.0,36.0,12.0,3.0,1.0,0.0,6.0,,0.0
W190545081573001,466,Chhattisgarh,Bastar,Jagdalpur,Kumharwand,19.09,81.96,8.0,233.0,0.0,122.0,7.0,8.0,1.0,0.0,115.0,36.0,6.0,2.0,1.0,0.0,4.0,,0.0
W190510082014001,467,Chhattisgarh,Bastar,Jagdalpur,Jagdalpur,19.09,82.03,7.0,181.0,0.0,79.0,14.0,5.0,4.0,0.0,80.0,20.0,7.0,5.0,2.0,0.0,3.0,,0.0
W190350082085001,468,Chhattisgarh,Bastar,Jagdalpur,Markel,19.06,82.15,7.0,123.0,0.0,61.0,7.0,0.0,1.0,0.0,50.0,12.0,5.0,2.0,3.0,0.0,2.0,,0.0
W191205081561001,469,Chhattisgarh,Bastar,Jagdalpur,Bastar,19.2,81.94,7.0,349.0,0.0,171.0,21.0,0.0,18.0,0.0,175.0,52.0,11.0,4.0,1.0,0.0,5.0,,0.0
W191700081570001,470,Chhattisgarh,Bastar,Bastar,Sonarpal,19.26,81.89,7.0,607.0,0.0,268.0,43.0,0.0,29.0,0.0,280.0,92.0,12.0,8.0,4.0,0.0,4.0,,0.0
W192047081465101,471,Chhattisgarh,Bastar,Bastar,Farsaguda,19.35,81.81,8.0,268.0,0.0,98.0,21.0,0.0,20.0,0.0,110.0,32.0,7.0,9.0,0.0,0.0,4.0,,0.0
W201645081294501,472,Chhattisgarh,Kanker,Kanker,Kanker,20.28,81.5,7.0,1533.0,0.0,378.0,255.0,70.0,1.0,0.0,520.0,84.0,74.0,119.0,2.0,2.0,15.0,,30.0
W202213081262901,473,Chhattisgarh,Kanker,Charama,Tegara,20.37,81.44,8.0,255.0,0.0,152.0,7.0,0.0,0.0,0.0,115.0,36.0,6.0,9.0,2.0,1.0,14.0,,0.0
W202345081254001,474,Chhattisgarh,Kanker,Charama,Lakhanpuri,20.39,81.43,8.0,1292.0,0.0,256.0,213.0,100.0,39.0,0.0,500.0,84.0,70.0,69.0,1.0,1.0,12.0,,0.0
W202531081242101,475,Chhattisgarh,Kanker,Charama,Jhipatota,20.48,81.37,8.0,906.0,0.0,262.0,106.0,40.0,28.0,0.0,300.0,88.0,19.0,59.0,2.0,1.0,10.0,,0.0
W215745083011001,476,Chhattisgarh,Bilaspur,Pendra,Adbhar,22.49,81.59,8.0,378.0,0.0,171.0,35.0,10.0,0.0,0.0,145.0,40.0,11.0,26.0,2.0,0.0,9.0,,2.0
W215505082160302,477,Chhattisgarh,Bilaspur,Masturi,Bakarkuda,21.92,82.27,8.0,695.0,0.0,293.0,64.0,19.0,2.0,0.0,290.0,60.0,34.0,28.0,2.0,0.0,5.0,,1.0
W222810082061601,478,Chhattisgarh,Bilaspur,Kota,Banabel,22.47,82.11,8.0,1153.0,0.0,415.0,149.0,30.0,0.0,0.0,260.0,20.0,50.0,150.0,1.0,1.0,8.0,,3.0
W222300082070001,479,Chhattisgarh,Bilaspur,Kota,Bansajhal,22.38,82.12,8.0,421.0,0.0,207.0,28.0,14.0,2.0,0.0,180.0,44.0,17.0,21.0,1.0,0.0,6.0,,1.0
W215247082085101,480,Chhattisgarh,Bilaspur,Bilha,Bartoli,21.88,82.15,8.0,1179.0,0.0,305.0,142.0,49.0,67.0,0.0,400.0,72.0,53.0,69.0,4.0,0.0,6.0,,1.0
W222600082020001,481,Chhattisgarh,Bilaspur,Kota,Belgahana,22.43,82.03,8.0,700.0,0.0,311.0,64.0,27.0,5.0,0.0,300.0,44.0,46.0,38.0,1.0,1.0,11.0,,1.0
W220941082200801,482,Chhattisgarh,Bilaspur,Bilaspur,Bhadrapara,22.16,82.34,8.0,533.0,0.0,244.0,35.0,35.0,5.0,0.0,240.0,36.0,36.0,21.0,3.0,0.0,16.0,,1.0
W215810082025001,483,Chhattisgarh,Bilaspur,Bilha,Bilha,21.96,82.09,8.0,885.0,0.0,329.0,78.0,31.0,9.0,0.0,250.0,52.0,29.0,77.0,2.0,0.0,8.0,,2.0
W214630081400301,484,Chhattisgarh,Bilaspur,Bilha,Bitkuli,21.95,82.05,8.0,667.0,0.0,268.0,64.0,33.0,9.0,0.0,310.0,52.0,43.0,19.0,1.0,0.0,6.0,,1.0
W215926082143301,485,Chhattisgarh,Bilaspur,Masturi,Bothidih,21.99,82.24,8.0,1451.0,0.0,348.0,199.0,91.0,68.0,0.0,560.0,100.0,74.0,71.0,1.0,0.0,14.0,,1.0
W220003082072301,486,Chhattisgarh,Bilaspur,Bilha,Chakarbhata,22.0,82.12,8.0,725.0,0.0,244.0,78.0,59.0,26.0,0.0,285.0,60.0,32.0,25.0,1.0,0.0,12.0,,3.0
W230109082020901,487,Chhattisgarh,Bilaspur,Marwahi,Chchgohana,23.02,82.04,8.0,228.0,0.0,79.0,14.0,27.0,9.0,0.0,90.0,28.0,5.0,12.0,1.0,0.0,10.0,,2.0
W204704080370401,488,Chhattisgarh,Bilaspur,Masturi,Chilhati,21.78,82.31,8.0,1072.0,0.0,512.0,85.0,27.0,13.0,0.0,195.0,4.0,44.0,177.0,2.0,1.0,9.0,,1.0
W215338082041401,489,Chhattisgarh,Bilaspur,Bilha,Dagauri,21.89,82.07,8.0,1739.0,0.0,665.0,241.0,52.0,8.0,0.0,430.0,44.0,77.0,184.0,93.0,0.0,13.0,,0.0
W225545082040001,490,Chhattisgarh,Bilaspur,Marwahi,Danikundi,22.93,82.07,8.0,585.0,0.0,183.0,64.0,22.0,63.0,0.0,250.0,60.0,24.0,26.0,3.0,0.0,8.0,,3.0
W223800074061501,491,Chhattisgarh,Bilaspur,Marwahi,Dhanpur,22.88,81.99,8.0,122.0,0.0,43.0,14.0,6.0,6.0,0.0,50.0,12.0,5.0,5.0,2.0,0.0,12.0,,1.0
W211255081125001,492,Chhattisgarh,Bilaspur,Takhatpur,Ganiyari,22.19,82.05,8.0,511.0,0.0,268.0,14.0,18.0,16.0,0.0,245.0,48.0,30.0,12.0,1.0,0.0,8.0,,0.0
W221140082082001,493,Chhattisgarh,Bilaspur,Takhatpur,Gatori,22.19,82.14,8.0,252.0,0.0,61.0,43.0,18.0,0.0,0.0,110.0,24.0,12.0,8.0,3.0,0.0,6.0,,1.0
W224515081544001,494,Chhattisgarh,Bilaspur,Gaurela (pendrarod) - 2,Gaurela,22.75,81.91,7.0,1089.0,0.0,293.0,206.0,29.0,7.0,0.0,350.0,84.0,34.0,100.0,2.0,0.0,9.0,,0.0
W222130082081604,495,Chhattisgarh,Bilaspur,kota,Ghansipur (sainik camp),22.36,82.14,7.0,613.0,0.0,305.0,28.0,16.0,7.0,0.0,235.0,44.0,30.0,37.0,1.0,1.0,10.0,,1.0
W215815082030001,496,Chhattisgarh,Bilaspur,Bilha,Hirri,21.97,82.05,7.0,690.0,0.0,268.0,64.0,34.0,1.0,0.0,285.0,48.0,40.0,28.0,3.0,0.0,13.0,,15.0
W221535081564401,497,Chhattisgarh,Bilaspur,Takhatpur,Jaroundha,22.15,81.56,7.0,804.0,0.0,366.0,21.0,77.0,13.0,0.0,360.0,96.0,29.0,26.0,3.0,0.0,11.0,,1.0
W222200081595001,498,Chhattisgarh,Bilaspur,Kota,Jhingatpur,22.37,82.0,7.0,494.0,0.0,268.0,28.0,3.0,4.0,0.0,215.0,44.0,25.0,23.0,2.0,0.0,9.0,,3.0
W221745082043001,499,Chhattisgarh,Bilaspur,Kota,Jogipur,22.3,82.08,7.0,542.0,0.0,232.0,35.0,22.0,27.0,0.0,225.0,52.0,23.0,27.0,1.0,0.0,8.0,,1.0
W223155082045001,500,Chhattisgarh,Bilaspur,Kota,Kenda,22.53,82.08,8.0,264.0,0.0,183.0,14.0,3.0,2.0,0.0,130.0,28.0,14.0,15.0,6.0,0.0,9.0,,0.0
W223715081461501,501,Chhattisgarh,Bilaspur,Gaurela (pendrarod) - 1,Keonchi,22.62,81.77,7.0,359.0,0.0,171.0,21.0,15.0,0.0,0.0,125.0,36.0,8.0,30.0,1.0,1.0,12.0,,1.0
W211753086265701,502,Chhattisgarh,Bilaspur,Kota,Khaira,22.36,82.14,7.0,527.0,0.0,293.0,28.0,9.0,1.0,0.0,195.0,40.0,23.0,45.0,1.0,1.0,10.0,,7.0
W221720082013001,503,Chhattisgarh,Bilaspur,Kota,Kota(kargi),22.29,82.03,7.0,614.0,0.0,140.0,99.0,14.0,58.0,0.0,200.0,72.0,5.0,53.0,2.0,0.0,11.0,,2.0
W225153081584804,504,Chhattisgarh,Bilaspur,Marwahi,Kudwahi,22.86,81.98,7.0,718.0,0.0,256.0,92.0,24.0,8.0,0.0,310.0,76.0,29.0,28.0,1.0,0.0,14.0,,3.0
W220843082245701,505,Chhattisgarh,Bilaspur,Takhatpur,Kuli,22.14,82.42,7.0,172.0,0.0,85.0,7.0,5.0,2.0,0.0,50.0,12.0,5.0,17.0,1.0,0.0,11.0,,1.0
W225432081584101,506,Chhattisgarh,Bilaspur,Marwahi,Lekhani,22.91,81.98,7.0,987.0,0.0,305.0,142.0,36.0,31.0,0.0,450.0,76.0,62.0,28.0,1.0,0.0,10.0,,5.0
W215329082170901,507,Chhattisgarh,Bilaspur,Masturi,Malhar,21.89,82.29,8.0,551.0,0.0,262.0,28.0,36.0,10.0,0.0,245.0,60.0,23.0,27.0,1.0,0.0,8.0,,2.0
W230112082041001,508,Chhattisgarh,Bilaspur,Marwahi,Marwahi,23.02,82.07,8.0,1016.0,0.0,390.0,92.0,60.0,3.0,0.0,450.0,116.0,38.0,27.0,2.0,0.0,12.0,,1.0
W220733082153001,509,Chhattisgarh,Bilaspur,Bilaspur,Matiyari,22.13,82.26,8.0,640.0,0.0,281.0,35.0,24.0,31.0,0.0,260.0,44.0,36.0,33.0,1.0,0.0,7.0,,6.0
W215925082160001,510,Chhattisgarh,Bilaspur,Masturi,Masturi,21.99,82.27,8.0,1275.0,0.0,622.0,78.0,50.0,10.0,0.0,440.0,96.0,48.0,111.0,4.0,1.0,11.0,,3.0
W222308082070204,511,Chhattisgarh,Bilaspur,Kota,Minrapara-Ratanpur,22.39,82.12,8.0,1016.0,0.0,342.0,92.0,58.0,66.0,0.0,450.0,88.0,55.0,32.0,6.0,0.0,14.0,,7.0
W204752082321001,512,Chhattisgarh,Bilaspur,Kota,Nawapara,22.43,82.12,8.0,511.0,0.0,305.0,7.0,8.0,8.0,0.0,250.0,60.0,24.0,10.0,1.0,0.0,10.0,,2.0
W222338081595201,513,Chhattisgarh,Bilaspur,Kota,Nawadih,22.39,82.0,8.0,212.0,0.0,92.0,28.0,16.0,2.0,0.0,90.0,28.0,5.0,19.0,0.0,0.0,12.0,,1.0
W221245081555401,514,Chhattisgarh,Bilaspur,Takhatpur,Neora,22.21,81.93,8.0,702.0,0.0,317.0,43.0,40.0,18.0,0.0,310.0,56.0,41.0,30.0,1.0,0.0,11.0,,0.0
W225649081564201,515,Chhattisgarh,Bilaspur,Marwahi,Nimdha,22.95,81.95,8.0,1004.0,0.0,336.0,128.0,38.0,51.0,0.0,460.0,100.0,50.0,36.0,2.0,0.0,14.0,,1.0
W214941082161201,516,Chhattisgarh,Bilaspur,Masturi,Panchpedi,21.83,82.27,8.0,1052.0,0.0,464.0,64.0,79.0,29.0,0.0,445.0,76.0,61.0,57.0,9.0,0.0,10.0,,1.0
W222535082023501,517,Chhattisgarh,Bilaspur,Kota,Pandra Patha,22.43,82.04,8.0,531.0,0.0,183.0,28.0,36.0,23.0,0.0,165.0,52.0,8.0,38.0,1.0,1.0,11.0,,2.0
W215539082211701,518,Chhattisgarh,Bilaspur,Masturi,Kohronda,21.93,82.35,8.0,510.0,0.0,201.0,43.0,37.0,27.0,0.0,210.0,64.0,12.0,32.0,2.0,1.0,9.0,,13.0
W192114084461501,519,Chhattisgarh,Bilaspur,Kota,Ratanpur,22.28,82.18,8.0,1660.0,0.0,488.0,213.0,72.0,72.0,0.0,710.0,172.0,67.0,57.0,2.0,0.0,7.0,,3.0
W224151081533601,520,Chhattisgarh,Bilaspur,Gaurela (pendrarod) - 1,Rupandand,22.7,81.89,8.0,386.0,0.0,140.0,28.0,19.0,32.0,0.0,130.0,48.0,2.0,32.0,1.0,0.0,13.0,,1.0
W222030081561001,521,Chhattisgarh,Bilaspur,Kota,Saraipalli,22.34,81.94,8.0,904.0,0.0,281.0,135.0,47.0,24.0,0.0,420.0,160.0,5.0,31.0,1.0,0.0,12.0,,1.0
W230045081573001,522,Chhattisgarh,Bilaspur,Marwahi,Seoni,23.01,81.96,8.0,199.0,0.0,73.0,14.0,6.0,21.0,0.0,65.0,16.0,6.0,18.0,2.0,0.0,10.0,,1.0
W225106081585001,523,Chhattisgarh,Bilaspur,Marwahi,Sewra,22.85,81.98,8.0,759.0,0.0,329.0,64.0,30.0,2.0,0.0,310.0,52.0,43.0,40.0,0.0,1.0,16.0,,2.0
W225038082050901,524,Chhattisgarh,Bilaspur,Marwahi,Shekhwa,22.84,82.09,8.0,401.0,0.0,256.0,7.0,5.0,1.0,0.0,170.0,48.0,12.0,27.0,0.0,0.0,10.0,,9.0
W222100082005801,525,Chhattisgarh,Bilaspur,Kota,Shripara,22.21,82.01,8.0,801.0,0.0,342.0,28.0,84.0,14.0,0.0,275.0,44.0,40.0,66.0,1.0,0.0,7.0,,3.0
W220845082164501,526,Chhattisgarh,Bilaspur,Takhatpur,Sipat,22.15,82.28,8.0,714.0,0.0,256.0,57.0,60.0,7.0,0.0,305.0,56.0,40.0,24.0,1.0,0.0,6.0,,2.0
W220512081401201,527,Chhattisgarh,Bilaspur,Mungeli,Surada,22.09,81.67,8.0,369.0,0.0,207.0,14.0,10.0,1.0,0.0,140.0,28.0,17.0,28.0,2.0,0.0,7.0,,0.0
W213229082043101,528,Chhattisgarh,Bilaspur,Bilha,Sawti,21.54,82.08,8.0,1493.0,0.0,641.0,92.0,99.0,57.0,0.0,650.0,156.0,62.0,70.0,2.0,0.0,20.0,,7.0
W222949082040101,529,Chhattisgarh,Bilaspur,Kota,Saudhakhurd,22.5,82.07,8.0,898.0,0.0,305.0,78.0,88.0,1.0,0.0,195.0,40.0,23.0,117.0,2.0,0.0,16.0,,1.0
W230324082004401,530,Chhattisgarh,Bilaspur,Marwahi,Tendumuda,23.06,82.01,8.0,451.0,0.0,220.0,14.0,37.0,13.0,0.0,215.0,52.0,20.0,17.0,1.0,0.0,13.0,,1.0
W221515081530001,531,Chhattisgarh,Bilaspur,Kota,Tenduwa,22.25,81.88,8.0,676.0,0.0,171.0,64.0,39.0,56.0,0.0,280.0,96.0,10.0,16.0,2.0,0.0,10.0,,1.0
W230504082041001,532,Chhattisgarh,Bilaspur,Marwahi,Tikthi,23.08,82.07,8.0,223.0,0.0,122.0,14.0,4.0,0.0,0.0,80.0,20.0,7.0,23.0,0.0,2.0,14.0,,0.0
W221621081451601,533,Chhattisgarh,Bilaspur,Takhatpur,Udaypur,22.27,81.75,8.0,297.0,0.0,165.0,7.0,16.0,2.0,0.0,125.0,32.0,11.0,18.0,0.0,0.0,12.0,,0.0
W225833081575101,534,Chhattisgarh,Bilaspur,Pendra road,Dharhar,22.98,81.96,8.0,183.0,0.0,67.0,21.0,13.0,0.0,0.0,70.0,20.0,5.0,14.0,0.0,0.0,9.0,,1.0
W220110082040401,535,Chhattisgarh,Bilaspur,Kota,Chhatauna,22.02,82.07,7.0,1780.0,0.0,671.0,213.0,50.0,7.0,0.0,560.0,48.0,106.0,153.0,13.0,0.0,12.0,,15.0
W231539081274301,536,Chhattisgarh,Bilaspur,Kota,Kanchanpur,22.37,82.06,8.0,1081.0,0.0,519.0,50.0,108.0,2.0,0.0,380.0,88.0,38.0,106.0,2.0,0.0,18.0,,5.0
W215745083011001,537,Chhattisgarh,Janjgir-Champa,Malkharoda,Adbhar,21.66,82.08,7.0,863.0,0.0,336.0,92.0,19.0,20.0,0.0,320.0,72.0,34.0,48.0,15.0,0.0,17.0,,1.0
W215911082430304,538,Chhattisgarh,Janjgir-Champa,Bamnidih,Afrid,21.99,82.72,7.0,1336.0,0.0,488.0,149.0,71.0,47.0,0.0,600.0,140.0,60.0,41.0,28.0,0.0,10.0,,6.0
W220135082252001,539,Chhattisgarh,Janjgir-Champa,Akaltara,Akaltara,22.03,82.42,8.0,615.0,0.0,214.0,46.0,69.0,22.0,0.0,285.0,56.0,35.0,18.0,3.0,0.0,13.0,,1.0
W220457082273601,540,Chhattisgarh,Janjgir-Champa,Akaltara,Bamhani,22.08,82.45,7.0,1084.0,0.0,427.0,113.0,56.0,19.0,0.0,410.0,116.0,29.0,80.0,1.0,0.0,17.0,,1.0
W215349082372301,541,Chhattisgarh,Janjgir-Champa,Nawagarh,Budena,21.9,82.62,7.0,673.0,0.0,140.0,71.0,108.0,22.0,0.0,260.0,60.0,26.0,36.0,5.0,0.0,10.0,,2.0
W220207082394001,542,Chhattisgarh,Janjgir-Champa,Bamhnidih,Champa,22.04,82.66,7.0,1523.0,0.0,464.0,220.0,17.0,65.0,0.0,640.0,180.0,46.0,55.0,3.0,0.0,22.0,,1.0
W214700083050001,543,Chhattisgarh,Janjgir-Champa,Dabhra,Dabra,21.78,83.08,7.0,515.0,0.0,238.0,35.0,20.0,17.0,0.0,205.0,68.0,8.0,34.0,2.0,0.0,10.0,,1.0
W215649082500601,544,Chhattisgarh,Janjgir-Champa,Jaijaipur,Darra Bhata,21.95,82.84,7.0,358.0,0.0,153.0,7.0,56.0,3.0,0.0,155.0,44.0,11.0,19.0,1.0,0.0,9.0,,1.0
W220808082513401,545,Chhattisgarh,Janjgir-Champa,Shakti,Damau,22.14,82.86,7.0,1095.0,0.0,275.0,163.0,34.0,39.0,0.0,360.0,108.0,22.0,73.0,4.0,0.0,24.0,,5.0
W214750082313001,546,Chhattisgarh,Janjgir-Champa,Nawagarh,Dhardei,21.8,82.53,8.0,327.0,0.0,73.0,14.0,88.0,5.0,0.0,155.0,32.0,18.0,10.0,1.0,0.0,6.0,,3.0
W215048082272901,547,Chhattisgarh,Janjgir-Champa,Pamgarh,Dongakahrod,21.85,82.46,8.0,532.0,0.0,140.0,64.0,50.0,23.0,0.0,220.0,68.0,12.0,26.0,1.0,0.0,10.0,,1.0
W214700083003501,548,Chhattisgarh,Janjgir-Champa,Malkharoda,Ghoghari,21.78,83.01,7.0,1085.0,0.0,409.0,121.0,25.0,19.0,0.0,330.0,76.0,34.0,100.0,3.0,0.0,23.0,,1.0
W214505082544501,549,Chhattisgarh,Janjgir-Champa,Jaijaipur,Hasoud,21.75,82.91,8.0,267.0,0.0,49.0,7.0,75.0,14.0,0.0,120.0,48.0,0.0,7.0,0.0,0.0,10.0,,1.0
W215000082491501,550,Chhattisgarh,Janjgir-Champa,Jaijaipur,Jaijaipur,21.83,82.82,8.0,597.0,0.0,134.0,71.0,91.0,15.0,0.0,225.0,40.0,30.0,34.0,15.0,0.0,11.0,,3.0
W220200082202201,551,Chhattisgarh,Janjgir-Champa,Akaltara,Jairamnagar,22.03,82.34,8.0,834.0,0.0,390.0,35.0,31.0,35.0,0.0,340.0,104.0,19.0,40.0,5.0,0.0,16.0,,1.0
W220015082344501,552,Chhattisgarh,Janjgir-Champa,Nawagarh,Janjgir,22.01,82.58,8.0,464.0,0.0,207.0,21.0,52.0,9.0,0.0,220.0,56.0,19.0,20.0,1.0,0.0,12.0,,1.0
W215110082225801,553,Chhattisgarh,Janjgir-Champa,Pamgarh,Jewara,21.85,82.38,7.0,1280.0,0.0,397.0,163.0,59.0,20.0,0.0,380.0,76.0,46.0,113.0,9.0,0.0,19.0,,4.0
W215514082263501,554,Chhattisgarh,Janjgir-Champa,Pamgarh,Jhulanpakariya,21.92,82.44,8.0,1339.0,0.0,360.0,206.0,58.0,23.0,0.0,590.0,128.0,65.0,35.0,1.0,0.0,21.0,,1.0
W214445082424001,555,Chhattisgarh,Janjgir-Champa,Nawagarh,Kera,21.75,82.71,8.0,549.0,0.0,256.0,28.0,45.0,4.0,0.0,240.0,72.0,14.0,27.0,0.0,0.0,20.0,,1.0
W214800082400001,556,Chhattisgarh,Janjgir-Champa,Nawagarh,Khartal,21.8,82.67,8.0,550.0,0.0,195.0,43.0,39.0,13.0,0.0,190.0,32.0,26.0,36.0,3.0,0.0,14.0,,1.0
W215625082193001,557,Chhattisgarh,Janjgir-Champa,Akaltara,Khutighat,21.94,82.33,8.0,1058.0,0.0,293.0,92.0,85.0,49.0,0.0,375.0,92.0,35.0,38.0,31.0,0.0,24.0,,1.0
W215530082203001,558,Chhattisgarh,Janjgir-Champa,Akaltara,Konargarh,21.93,82.34,8.0,423.0,0.0,122.0,14.0,108.0,1.0,0.0,160.0,52.0,7.0,33.0,1.0,0.0,10.0,,2.0
W215338082203701,559,Chhattisgarh,Janjgir-Champa,Pamgarh,Kosa,21.89,82.34,8.0,746.0,0.0,354.0,35.0,9.0,8.0,0.0,290.0,84.0,19.0,32.0,1.0,0.0,16.0,,1.0
W214928083041904,560,Chhattisgarh,Janjgir-Champa,Malkharoda,Lachhmanbhata,21.82,83.07,8.0,850.0,0.0,262.0,92.0,48.0,31.0,0.0,290.0,80.0,22.0,58.0,4.0,0.0,21.0,,2.0
W214421083113101,561,Chhattisgarh,Janjgir-Champa,Dabhra,Latesara,21.74,83.19,8.0,518.0,0.0,153.0,28.0,72.0,34.0,0.0,250.0,60.0,24.0,7.0,1.0,0.0,12.0,,4.0
W214615082332401,562,Chhattisgarh,Janjgir-Champa,Nawagarh,Loharsi,21.77,82.56,8.0,410.0,0.0,171.0,14.0,107.0,1.0,0.0,240.0,60.0,22.0,14.0,2.0,0.0,10.0,,1.0
W214958082294501,563,Chhattisgarh,Janjgir-Champa,Janjgir- champa,Mehandi,21.83,82.5,8.0,1065.0,0.0,299.0,135.0,96.0,16.0,0.0,410.0,92.0,43.0,63.0,2.0,0.0,24.0,,1.0
W215145082275404,564,Chhattisgarh,Janjgir-Champa,Pamgarh,Meubhata,21.86,82.47,8.0,655.0,0.0,189.0,35.0,84.0,9.0,0.0,185.0,72.0,1.0,51.0,3.0,0.0,14.0,,1.0
W214406082391901,565,Chhattisgarh,Janjgir-Champa,Janjgir- champa,mudpar,21.74,82.66,7.0,2005.0,0.0,525.0,305.0,8.0,67.0,0.0,640.0,228.0,17.0,112.0,30.0,0.0,25.0,,1.0
W215549082212401,566,Chhattisgarh,Janjgir-Champa,Pamgarh,Mulmula,21.93,82.4,8.0,855.0,0.0,305.0,64.0,83.0,10.0,0.0,350.0,88.0,31.0,39.0,1.0,0.0,12.0,,2.0
W215652082241801,567,Chhattisgarh,Janjgir-Champa,Akaltara,Nariyara,21.95,82.41,7.0,936.0,0.0,372.0,64.0,106.0,13.0,0.0,370.0,84.0,38.0,66.0,1.0,0.0,16.0,,1.0
W214846082511704,568,Chhattisgarh,Janjgir-Champa,Jaijaipur,Odekara,21.81,82.85,8.0,504.0,0.0,201.0,35.0,13.0,4.0,0.0,250.0,52.0,29.0,16.0,0.0,0.0,10.0,,2.0
W215215082271001,569,Chhattisgarh,Janjgir-Champa,Pamgarh,Pamgarh,21.87,82.45,8.0,671.0,0.0,171.0,50.0,101.0,14.0,0.0,275.0,84.0,16.0,24.0,1.0,0.0,14.0,,1.0
W220115082574501,570,Chhattisgarh,Janjgir-Champa,Shakti,Sakti,22.02,82.96,7.0,1490.0,0.0,403.0,163.0,101.0,43.0,0.0,510.0,156.0,29.0,88.0,2.0,0.0,11.0,,2.0
W215346082444601,571,Chhattisgarh,Janjgir-Champa,Shakti,Saliabhata,22.14,82.85,7.0,620.0,0.0,134.0,43.0,90.0,56.0,0.0,270.0,76.0,19.0,12.0,11.0,0.0,13.0,,3.0
W212200081482501,572,Chhattisgarh,Janjgir-Champa,Bamhnidih,Saragaon,21.98,82.75,8.0,678.0,0.0,183.0,92.0,36.0,18.0,0.0,260.0,12.0,55.0,33.0,3.0,0.0,18.0,,0.0
W214633082230401,573,Chhattisgarh,Janjgir-Champa,Pamgarh,Sasaha,21.78,82.38,8.0,770.0,0.0,281.0,50.0,49.0,45.0,0.0,270.0,24.0,50.0,51.0,8.0,0.0,17.0,,1.0
W214559083150601,574,Chhattisgarh,Janjgir-Champa,Nawagarh,Semra,21.86,82.63,8.0,356.0,0.0,195.0,14.0,25.0,11.0,0.0,170.0,40.0,17.0,11.0,1.0,0.0,6.0,,1.0
W214400082354001,575,Chhattisgarh,Janjgir-Champa,Nawagarh,Seorinarayan,21.73,82.59,8.0,428.0,0.0,226.0,21.0,20.0,0.0,0.0,190.0,32.0,26.0,20.0,0.0,0.0,9.0,,1.0
W215753082363901,576,Chhattisgarh,Janjgir-Champa,Janjgir,shukli,21.97,82.61,8.0,393.0,0.0,189.0,14.0,20.0,4.0,0.0,160.0,24.0,24.0,18.0,0.0,0.0,7.0,,1.0
W215210083054001,577,Chhattisgarh,Janjgir-Champa,Malkharoda,Sukda,21.87,83.09,8.0,591.0,0.0,268.0,28.0,35.0,33.0,0.0,270.0,40.0,41.0,23.0,4.0,0.0,14.0,,0.0
W215555082493001,578,Chhattisgarh,Janjgir-Champa,Shakti,Thathari,21.93,82.83,8.0,335.0,0.0,153.0,28.0,15.0,1.0,0.0,150.0,24.0,22.0,13.0,2.0,0.0,10.0,,0.0
W205730086064501,579,Chhattisgarh,Janjgir-Champa,Pamgarh,vyasnagar,21.87,82.45,8.0,334.0,0.0,195.0,7.0,10.0,0.0,0.0,140.0,44.0,7.0,20.0,1.0,0.0,9.0,,0.0
W222330082225001,580,Chhattisgarh,Korba,Pali,Banbandha,22.39,82.38,8.0,565.0,0.0,244.0,35.0,30.0,6.0,0.0,270.0,24.0,50.0,5.0,3.0,0.0,11.0,,0.0
W222105082260001,581,Chhattisgarh,Korba,Pali,Bandhakhar,22.35,82.43,8.0,220.0,0.0,61.0,14.0,12.0,41.0,0.0,90.0,24.0,7.0,8.0,7.0,0.0,10.0,,0.0
W221159082462301,582,Chhattisgarh,Korba,Kartala,Barpali,22.2,82.77,8.0,858.0,0.0,244.0,85.0,71.0,34.0,0.0,350.0,36.0,62.0,30.0,7.0,0.0,16.0,,0.0
W222115082551301,583,Chhattisgarh,Korba,Kartala,Batati Junction,22.35,82.92,8.0,670.0,0.0,244.0,28.0,41.0,57.0,0.0,250.0,36.0,38.0,35.0,1.0,1.0,13.0,,0.0
W222600082260001,584,Chhattisgarh,Korba,Katghora,Chaitama,22.43,82.43,8.0,111.0,0.0,49.0,7.0,10.0,12.0,0.0,55.0,12.0,6.0,5.0,3.0,0.0,5.0,,0.0
W221910082590501,585,Chhattisgarh,Korba,Kartala,Champa mode,22.31,82.99,8.0,113.0,0.0,37.0,14.0,10.0,0.0,0.0,55.0,16.0,4.0,2.0,4.0,0.0,7.0,,0.0
W222028083003501,586,Chhattisgarh,Korba,Korba,chachiya,22.34,83.01,8.0,128.0,0.0,37.0,7.0,11.0,19.0,0.0,50.0,12.0,5.0,5.0,7.0,0.0,9.0,,32.0
W221424083011301,587,Chhattisgarh,Korba,Kartala,Charmar,22.24,83.02,8.0,821.0,0.0,281.0,57.0,54.0,39.0,0.0,285.0,12.0,61.0,43.0,15.0,0.0,15.0,,1.0
W222110082502501,588,Chhattisgarh,Korba,Korba,Dhegurdih manzipara,22.35,82.84,7.0,205.0,0.0,37.0,35.0,12.0,26.0,0.0,80.0,16.0,10.0,11.0,8.0,0.0,12.0,,0.0
W191518084462301,589,Chhattisgarh,Korba,Katghora,Gopalpur,22.43,82.65,8.0,170.0,0.0,49.0,14.0,12.0,15.0,0.0,60.0,20.0,2.0,8.0,6.0,0.0,8.0,,0.0
W222631082342101,590,Chhattisgarh,Korba,Katghora,Jamchuwa,22.45,82.58,8.0,225.0,0.0,61.0,14.0,18.0,26.0,0.0,80.0,16.0,10.0,12.0,6.0,0.0,6.0,,0.0
W222120082321901,591,Chhattisgarh,Korba,Katghora,Jhabar,22.36,82.54,8.0,287.0,0.0,61.0,28.0,13.0,55.0,0.0,115.0,20.0,16.0,12.0,9.0,0.0,6.0,,0.0
W221221083000101,592,Chhattisgarh,Korba,Kartala,Jogipali,22.21,83.0,8.0,578.0,0.0,275.0,35.0,25.0,2.0,0.0,155.0,24.0,23.0,68.0,3.0,0.0,11.0,,0.0
W221810082574501,593,Chhattisgarh,Korba,Kartala,Kartala,22.3,82.96,8.0,349.0,0.0,122.0,21.0,52.0,1.0,0.0,130.0,32.0,12.0,25.0,2.0,1.0,10.0,,13.0
W222859082320701,594,Chhattisgarh,KORBA,Katghora,Kasania,22.48,82.54,8.0,195.0,0.0,110.0,14.0,19.0,0.0,0.0,100.0,20.0,12.0,13.0,4.0,0.0,9.0,,0.0
W223030082311501,595,Chhattisgarh,Korba,Katghora,Katghora,22.51,82.52,8.0,168.0,0.0,73.0,7.0,13.0,1.0,0.0,70.0,16.0,7.0,5.0,2.0,0.0,8.0,,0.0
W223550082234601,596,Chhattisgarh,Korba,Pondi,Khodri,22.6,82.4,7.0,444.0,0.0,171.0,21.0,21.0,44.0,0.0,150.0,24.0,22.0,34.0,1.0,0.0,10.0,,0.0
W220734082404901,597,Chhattisgarh,Korba,korba,kothari naka,22.13,82.68,8.0,504.0,0.0,281.0,14.0,18.0,6.0,0.0,180.0,24.0,29.0,44.0,0.0,1.0,11.0,,0.0
W224554082154901,598,Chhattisgarh,Korba,Pondi,Lenga,22.76,82.26,8.0,73.0,0.0,37.0,4.0,9.0,7.0,0.0,25.0,6.0,2.0,2.0,5.0,0.0,3.0,,0.0
W224000082225001,599,Chhattisgarh,Korba,Pondi,Nagai,22.67,82.38,8.0,248.0,0.0,98.0,7.0,12.0,26.0,0.0,90.0,20.0,10.0,11.0,10.0,0.0,9.0,,0.0
W222042082462601,600,Chhattisgarh,Korba,Korba,Naktikhar,22.34,82.77,8.0,315.0,0.0,98.0,43.0,11.0,2.0,0.0,145.0,28.0,18.0,3.0,2.0,0.0,8.0,,0.0
W222005082322901,601,Chhattisgarh,Korba,Katghora,Naraibodh,22.33,82.62,8.0,296.0,0.0,49.0,14.0,10.0,46.0,0.0,180.0,28.0,26.0,10.0,7.0,0.0,6.0,,0.0
W221635082520001,602,Chhattisgarh,Korba,Pali,Nonbirra,22.34,82.46,8.0,247.0,0.0,159.0,7.0,10.0,1.0,0.0,250.0,28.0,43.0,6.0,5.0,1.0,5.0,,0.0
W183233073130801,603,Chhattisgarh,Korba,Pali,Pali,22.37,82.32,7.0,964.0,0.0,317.0,85.0,73.0,10.0,0.0,350.0,128.0,7.0,52.0,1.0,1.0,19.0,,0.0
W225030082120001,604,Chhattisgarh,Korba,Pondi,Pasan,22.84,82.2,8.0,760.0,0.0,207.0,85.0,60.0,25.0,0.0,290.0,36.0,48.0,36.0,3.0,0.0,18.0,,0.0
W222211082573501,605,Chhattisgarh,Korba,Korba,Pasarkhet,22.36,82.96,8.0,348.0,0.0,122.0,21.0,29.0,21.0,0.0,100.0,12.0,17.0,35.0,1.0,1.0,9.0,,0.0
W205147082454001,606,Chhattisgarh,Korba,Kartala,Purena,22.18,82.72,7.0,197.0,0.0,37.0,21.0,20.0,21.0,0.0,65.0,20.0,4.0,10.0,7.0,0.0,8.0,,0.0
W222651082284201,607,Chhattisgarh,Korba,Katghora,Rajkamma,22.45,82.48,8.0,234.0,0.0,79.0,14.0,20.0,26.0,0.0,105.0,24.0,11.0,5.0,9.0,0.0,9.0,,0.0
W222224082461301,608,Chhattisgarh,Korba,Korba,Rishdi,22.37,82.76,8.0,139.0,0.0,37.0,7.0,31.0,1.0,0.0,30.0,8.0,2.0,19.0,2.0,0.0,5.0,,0.0
W221635082530901,609,Chhattisgarh,Korba,Kartala,Sakdukala,22.28,82.88,8.0,271.0,0.0,85.0,28.0,25.0,10.0,0.0,75.0,20.0,6.0,32.0,3.0,0.0,9.0,,0.0
W221615082500501,610,Chhattisgarh,Korba,Kartala,Salihabhata,22.27,82.83,7.0,282.0,0.0,73.0,35.0,19.0,25.0,0.0,125.0,44.0,4.0,11.0,3.0,0.0,8.0,,0.0
W222931082360101,611,Chhattisgarh,Korba,Korba,Salora,22.49,82.6,8.0,564.0,0.0,220.0,50.0,40.0,1.0,0.0,200.0,16.0,38.0,39.0,5.0,0.0,11.0,,0.0
W222926082300901,612,Chhattisgarh,Korba,Katghora,Sindhiya,22.5,82.5,8.0,159.0,0.0,61.0,7.0,19.0,7.0,0.0,60.0,16.0,5.0,13.0,1.0,0.0,6.0,,0.0
W221148082470701,613,Chhattisgarh,Korba,Pondi,Tuman,22.58,82.42,8.0,72.0,0.0,24.0,4.0,9.0,3.0,0.0,20.0,4.0,2.0,4.0,4.0,0.0,6.0,,4.0
W221148082470701,614,Chhattisgarh,Korba,Kartala,Tuman,22.2,82.79,8.0,348.0,0.0,171.0,14.0,17.0,15.0,0.0,165.0,28.0,23.0,10.0,2.0,0.0,10.0,,0.0
W221336082434801,615,Chhattisgarh,Korba,Kartala,Sargundia,22.23,82.73,7.0,1903.0,0.0,476.0,262.0,100.0,59.0,0.0,690.0,140.0,82.0,101.0,3.0,0.0,26.0,,0.0
W222324082214901,616,Chhattisgarh,Korba,Pali,Dumarkochhar,22.39,82.36,8.0,722.0,0.0,354.0,50.0,31.0,2.0,0.0,280.0,32.0,48.0,50.0,5.0,0.0,20.0,,0.0
W222320082222704,617,Chhattisgarh,Korba,Pali,Makhanpur,22.39,82.37,8.0,914.0,0.0,500.0,35.0,31.0,4.0,0.0,330.0,24.0,65.0,64.0,23.0,1.0,21.0,,4.0
W222120082191201,618,Chhattisgarh,Korba,Pali,Rahadih,22.36,82.32,8.0,237.0,0.0,110.0,14.0,19.0,1.0,0.0,110.0,12.0,19.0,7.0,4.0,0.0,9.0,,3.0
W221928082172401,619,Chhattisgarh,Korba,Pali,Baksahi,22.32,82.29,8.0,87.0,0.0,18.0,7.0,7.0,15.0,0.0,35.0,6.0,5.0,5.0,0.0,0.0,5.0,,6.0
W222020082183101,620,Chhattisgarh,Korba,Pali,Mungadih,22.34,82.31,8.0,1071.0,0.0,281.0,149.0,64.0,1.0,0.0,340.0,52.0,50.0,74.0,5.0,0.0,22.0,,0.0
W221900082355304,621,Chhattisgarh,Korba,korba,Bahanpath,22.32,82.6,8.0,245.0,0.0,37.0,35.0,19.0,39.0,0.0,80.0,12.0,12.0,16.0,11.0,0.0,9.0,,0.0
W221222082433301,622,Chhattisgarh,Korba,Korba,Barpali(Junadhi),22.21,82.73,8.0,361.0,0.0,110.0,21.0,31.0,39.0,0.0,130.0,24.0,17.0,10.0,24.0,0.0,10.0,,0.0
W222545083023901,623,Chhattisgarh,Korba,Korba,Basin,22.43,83.04,8.0,821.0,0.0,268.0,64.0,67.0,57.0,0.0,270.0,60.0,29.0,56.0,23.0,0.0,19.0,,0.0
W222421082370001,624,Chhattisgarh,Korba,Katghora,Gajra,22.4,82.62,8.0,362.0,0.0,195.0,21.0,22.0,8.0,0.0,170.0,32.0,22.0,13.0,14.0,0.0,9.0,,5.0
W222232082523401,625,Chhattisgarh,Korba,Korba,Kerwa,22.37,82.88,8.0,223.0,0.0,104.0,7.0,17.0,2.0,0.0,100.0,24.0,10.0,4.0,3.0,0.0,7.0,,6.0
W222349082592901,626,Chhattisgarh,Korba,Korba,Kolga,22.4,82.99,8.0,371.0,0.0,207.0,21.0,22.0,2.0,0.0,200.0,36.0,26.0,10.0,3.0,0.0,8.0,,1.0
W222045082420001,627,Chhattisgarh,Korba,Korba,Korba,22.2,82.43,8.0,518.0,0.0,275.0,14.0,20.0,11.0,0.0,190.0,32.0,26.0,34.0,11.0,0.0,10.0,,4.0
W221912083043901,628,Chhattisgarh,Korba,Kartala,Kudmura,22.32,83.08,8.0,588.0,0.0,195.0,50.0,39.0,11.0,0.0,140.0,16.0,24.0,16.0,81.0,0.0,10.0,,3.0
W205715081152901,629,Chhattisgarh,Balod,Gunderdehi,chichalgondi,20.95,81.26,8.0,810.0,0.0,238.0,81.0,66.0,27.0,0.0,235.0,64.0,18.0,93.0,3.0,0.0,12.0,,0.0
W210042081171301,630,Chhattisgarh,Balod,Durg,Danganiya,21.01,81.29,8.0,1574.0,0.0,238.0,273.0,91.0,19.0,0.0,385.0,74.0,48.0,171.0,2.0,1.0,10.0,,0.0
W204004081075401,631,Chhattisgarh,Balod,Sanjari Balod,Gujara,20.67,81.13,8.0,887.0,0.0,195.0,95.0,87.0,46.0,0.0,340.0,58.0,47.0,46.0,1.0,0.0,16.0,,0.0
W205904080585501,632,Chhattisgarh,balod,Doundi- lohara,Jeortala,20.98,80.98,7.0,604.0,0.0,128.0,84.0,51.0,1.0,0.0,240.0,62.0,20.0,25.0,0.0,0.0,8.0,,0.0
W203720081263301,633,Chhattisgarh,Balod,Balod,Jagtara,20.74,81.13,8.0,399.0,0.0,195.0,14.0,21.0,1.0,0.0,180.0,50.0,13.0,6.0,2.0,0.0,11.0,,0.0
W205419081201501,634,Chhattisgarh,Balod,Gunderdehi,Kalangpur,20.91,81.34,7.0,516.0,0.0,207.0,25.0,39.0,2.0,0.0,210.0,38.0,28.0,22.0,1.0,0.0,10.0,,0.0
W203625081171901,635,Chhattisgarh,Balod,Balod,Talgaon,20.61,81.29,7.0,312.0,0.0,134.0,18.0,21.0,1.0,0.0,140.0,34.0,13.0,6.0,2.0,0.0,11.0,,0.0
W205712081190101,636,Chhattisgarh,Balod,Gunderdehi,Machod,20.95,81.32,8.0,632.0,0.0,201.0,74.0,39.0,13.0,0.0,105.0,20.0,13.0,108.0,5.0,1.0,7.0,,0.0
W205641081234801,637,Chhattisgarh,Balod,Gunderdehi,Jhafra,20.94,81.4,8.0,630.0,0.0,256.0,32.0,45.0,0.0,0.0,205.0,40.0,25.0,38.0,1.0,0.0,11.0,,0.0
W214255081352101,638,Chhattisgarh,Bemetara,Bemetara,Baba Mohtara,21.72,81.59,8.0,601.0,0.0,189.0,18.0,71.0,0.0,0.0,260.0,36.0,41.0,16.0,1.0,0.0,9.0,,0.0
W214546081285801,639,Chhattisgarh,Bemetara,Bemetara,Bahera,21.76,81.48,7.0,2120.0,0.0,250.0,133.0,467.0,67.0,0.0,810.0,196.0,77.0,104.0,3.0,1.0,12.0,,0.0
W214543081305101,640,Chhattisgarh,Bemetara,Bemetara,Baiji,21.76,81.51,7.0,2150.0,0.0,220.0,126.0,526.0,67.0,0.0,855.0,192.0,90.0,104.0,3.0,0.0,13.0,,0.0
W214131081132301,641,Chhattisgarh,Bemetara,Bemetara,Bhurki,21.71,81.22,8.0,825.0,0.0,220.0,56.0,105.0,22.0,0.0,355.0,70.0,43.0,33.0,3.0,1.0,8.0,,0.0
W213932081331401,642,Chhattisgarh,Bemetara,Bela,Bijabhat,21.66,81.55,8.0,569.0,0.0,220.0,21.0,76.0,0.0,0.0,265.0,50.0,34.0,17.0,1.0,0.0,9.0,,0.0
W215237081275201,643,Chhattisgarh,Bemetara,Bemetara,Chilphi,21.88,81.47,7.0,2260.0,0.0,805.0,322.0,24.0,66.0,0.0,950.0,280.0,60.0,104.0,3.0,0.0,12.0,,0.0
W214121081290201,644,Chhattisgarh,Bemetara,Bemetara,Dunra,21.69,81.49,7.0,826.0,0.0,189.0,88.0,106.0,23.0,0.0,360.0,64.0,48.0,33.0,3.0,1.0,7.0,,0.0
W214453081193201,645,Chhattisgarh,Bemetara,Bemetara,Jewari,21.75,81.33,7.0,782.0,0.0,287.0,49.0,55.0,22.0,0.0,330.0,68.0,38.0,20.0,0.0,1.0,21.0,,0.0
W214006081181901,646,Chhattisgarh,Bemetara,Saja,Jata,21.67,81.31,7.0,558.0,0.0,250.0,18.0,37.0,15.0,0.0,240.0,42.0,32.0,9.0,1.0,0.0,9.0,,0.0
W214100081314801,647,Chhattisgarh,Bemetara,Bemetara,Khilora,21.68,81.53,7.0,2260.0,0.0,256.0,161.0,433.0,67.0,0.0,815.0,274.0,31.0,103.0,3.0,1.0,12.0,,0.0
W214019081282301,648,Chhattisgarh,Bemetara,Saja,Ninwa,21.68,81.46,8.0,855.0,0.0,195.0,112.0,103.0,23.0,0.0,385.0,70.0,50.0,30.0,3.0,0.0,8.0,,0.0
W213517081240501,649,Chhattisgarh,Bemetara,Berla,Parpoda,21.59,81.21,8.0,408.0,0.0,134.0,35.0,21.0,23.0,0.0,205.0,44.0,23.0,16.0,1.0,0.0,12.0,,0.0
W232055082152001,650,Chhattisgarh,Bemetara,Bemetara,Pendri,21.71,81.62,8.0,703.0,0.0,220.0,74.0,101.0,3.0,0.0,300.0,58.0,37.0,34.0,1.0,0.0,10.0,,0.0
W214215081133201,651,Chhattisgarh,Bemetara,Saja,Piparia,21.7,81.23,8.0,845.0,0.0,220.0,109.0,105.0,0.0,0.0,350.0,76.0,38.0,42.0,2.0,0.0,9.0,,0.0
W212911081175301,652,Chhattisgarh,Bemetara,Saja,Rakhi (Joba),21.49,81.3,8.0,863.0,0.0,220.0,112.0,48.0,25.0,0.0,370.0,42.0,64.0,21.0,1.0,0.0,8.0,,0.0
W213220081261302,653,Chhattisgarh,Bemetara,Berla,Sondh new,21.54,81.44,8.0,1018.0,0.0,336.0,109.0,57.0,14.0,0.0,405.0,98.0,38.0,62.0,2.0,0.0,9.0,,0.0
W214000081142701,654,Chhattisgarh,Bemetara,Saja,Suwartala,21.67,81.24,8.0,912.0,0.0,293.0,74.0,106.0,0.0,0.0,385.0,72.0,49.0,44.0,2.0,0.0,10.0,,0.0
W213121081300601,655,Chhattisgarh,Bemetara,Berla,Rampur (Bhand),21.52,81.5,8.0,473.0,0.0,171.0,25.0,54.0,0.0,0.0,210.0,42.0,25.0,16.0,1.0,0.0,9.0,,0.0
W214012081235501,656,Chhattisgarh,Bemetra,Saja,Beeja,21.67,81.4,8.0,766.0,0.0,159.0,77.0,105.0,22.0,0.0,315.0,64.0,37.0,32.0,3.0,0.0,7.0,,0.0
W212140081250001,657,Chhattisgarh,Durg,Dhamdha,Ahiwara,21.36,81.42,8.0,777.0,0.0,104.0,123.0,62.0,25.0,0.0,300.0,88.0,19.0,34.0,4.0,0.0,12.0,,0.0
W210400081163001,658,Chhattisgarh,Durg,Durg,Anda,21.07,81.28,8.0,792.0,0.0,220.0,74.0,106.0,25.0,0.0,375.0,82.0,41.0,31.0,3.0,0.0,8.0,,0.0
W215018081355101,659,Chhattisgarh,Durg,Bemetara,Andhiyarkhor,21.84,81.6,8.0,550.0,0.0,189.0,53.0,63.0,0.0,0.0,165.0,40.0,16.0,59.0,3.0,1.0,14.0,,0.0
W205635081122001,660,Chhattisgarh,Durg,Gunderdehi,Arjunda,20.94,81.21,8.0,371.0,0.0,165.0,28.0,20.0,1.0,0.0,170.0,32.0,22.0,21.0,1.0,0.0,10.0,,0.0
W211841081203504,661,Chhattisgarh,Durg,Ahrwar,Arasnara,21.31,81.34,8.0,442.0,0.0,232.0,28.0,16.0,1.0,0.0,150.0,38.0,13.0,44.0,0.0,0.0,10.0,,0.0
W215750081330001,662,Chhattisgarh,Durg,Bemetara,Ashoga,21.96,81.55,8.0,831.0,0.0,214.0,98.0,42.0,64.0,0.0,285.0,70.0,26.0,54.0,1.0,0.0,38.0,,0.0
W204345081120001,663,Chhattisgarh,Durg,Sanjari Balod,Balod,20.73,81.2,8.0,412.0,0.0,116.0,28.0,92.0,0.0,0.0,190.0,52.0,14.0,14.0,4.0,0.0,6.0,,0.0
W204650081035101,664,Chhattisgarh,Durg,Dondi Lohara,Batera,20.78,81.06,8.0,366.0,0.0,128.0,18.0,70.0,0.0,0.0,165.0,30.0,22.0,17.0,1.0,0.0,7.0,,0.0
W214300081320001,665,Chhattisgarh,Durg,Bemetara,Bemetara,21.72,81.54,8.0,429.0,0.0,207.0,18.0,30.0,0.0,0.0,185.0,32.0,25.0,21.0,2.0,0.0,14.0,,0.0
W205315080595001,666,Chhattisgarh,Durg,Dondi Lohara,Bharnabhat,20.89,81.0,8.0,822.0,0.0,171.0,95.0,72.0,31.0,0.0,235.0,64.0,18.0,75.0,6.0,0.0,5.0,,0.0
W214630081400301,667,Chhattisgarh,Durg,Bemetara,Bitkuli,21.78,81.67,8.0,863.0,0.0,226.0,74.0,105.0,13.0,0.0,280.0,48.0,38.0,68.0,2.0,0.0,8.0,,0.0
W213816081131201,668,Chhattisgarh,Durg,Saja,Bortara,21.64,81.22,8.0,444.0,0.0,171.0,39.0,45.0,3.0,0.0,220.0,50.0,23.0,9.0,2.0,0.0,9.0,,0.0
W210007081291401,669,Chhattisgarh,Durg,Patan,Darbarmukhli,81.49,21.0,8.0,952.0,0.0,220.0,98.0,102.0,15.0,0.0,335.0,82.0,31.0,69.0,2.0,0.0,7.0,,0.0
W212930081234001,670,Chhattisgarh,Durg,Dhamdha,Dargaon,21.49,81.39,8.0,394.0,0.0,146.0,32.0,34.0,1.0,0.0,185.0,40.0,20.0,12.0,2.0,0.0,7.0,,0.0
W203510081044001,671,Chhattisgarh,Durg,Sanjari Balod,Delli Rajhara,20.59,81.08,8.0,443.0,0.0,189.0,28.0,42.0,10.0,0.0,225.0,68.0,13.0,10.0,2.0,0.0,5.0,,0.0
W210413081294801,672,Chhattisgarh,Durg,Patan,Dewada,21.07,81.5,7.0,860.0,0.0,98.0,119.0,80.0,63.0,0.0,290.0,68.0,29.0,61.0,7.0,0.0,4.0,,0.0
W211130081163001,673,Chhattisgarh,Durg,Durg,Durg,21.19,81.28,8.0,427.0,0.0,92.0,49.0,58.0,40.0,0.0,60.0,22.0,1.0,74.0,2.0,0.0,9.0,,0.0
W210435081290001,674,Chhattisgarh,Durg,Patan,Funda,21.08,81.48,8.0,430.0,0.0,146.0,39.0,39.0,24.0,0.0,205.0,42.0,24.0,19.0,2.0,0.0,8.0,,0.0
